merge_timestamp,imet_Timestamp,imet_pressure,imet_temp,imet_rel_hum,imet_hum_temp,imet_date,imet_time,imet_longitude,imet_latitude,imet_altitude,imet_sat,pom_Timestamp,pom_Ozone_ppb,pom_Cell_Temperature_K,pom_Cell_Pressure_torr,pom_Photodiode_Voltage_V,pom_Power_Supply_V,pom_Latitude,pom_Longitude,pom_Altitude_m,pom_GPS_Quality,pom_Date,pom_Time,trisonica_Timestamp,trisonica_Wind_Speed,trisonica_Wind_Direction,trisonica_U_Vector,trisonica_V_Vector,trisonica_W_Vector,trisonica_Temperature,trisonica_Relative_Humidity,trisonica_Pressure,trisonica_Compass_Heading,trisonica_Pitch,trisonica_Roll
2025-12-03 11:34:51,2025-12-03 11:34:50,1010.1,+2293,3.45,+2399,2015/10/18,02:05:21,+0000000000,+0000000000,-00017000,00,,,,,,,,,,,,,,,,,,,,,,,,
2025-12-03 11:34:52,2025-12-03 11:34:51,1010.2,+2292,3.45,+2400,2015/10/18,02:05:22,+0000000000,+0000000000,-00017000,00,,,,,,,,,,,,,2025-12-03 11:34:52,00.09,117,-00.07,00.04,00.03,23.44,37.90,1009.66,179.5,179.8,216
2025-12-03 11:34:53,2025-12-03 11:34:52,1010.11,+2295,3.45,+2400,2015/10/18,02:05:23,+0000000000,+0000000000,-00017000,00,,,,,,,,,,,,,2025-12-03 11:34:53,00.08,124,-00.06,00.04,00.03,23.54,37.93,1009.61,179.5,179.7,215
2025-12-03 11:34:54,2025-12-03 11:34:53,1010.17,+2289,3.44,+2399,2015/10/18,02:05:24,+0000000000,+0000000000,-00017000,00,,,,,,,,,,,,,2025-12-03 11:34:54,00.08,114,-00.07,00.03,00.02,23.57,37.89,1009.68,179.5,179.8,216
2025-12-03 11:34:55,2025-12-03 11:34:54,1010.19,+2292,3.44,+2399,2015/10/18,02:05:25,+0000000000,+0000000000,-00017000,00,,,,,,,,,,,,,2025-12-03 11:34:55,00.06,131,-00.04,00.04,00.02,23.57,37.88,1009.65,179.5,179.8,216
2025-12-03 11:34:56,2025-12-03 11:34:55,1010.15,+2292,3.45,+2400,2015/10/18,02:05:26,+0000000000,+0000000000,-00017000,00,,,,,,,,,,,,,2025-12-03 11:34:56,00.10,136,-00.06,00.06,00.05,23.58,37.87,1009.63,179.5,179.8,215
2025-12-03 11:34:57,2025-12-03 11:34:56,1010.19,+2290,3.44,+2399,2015/10/18,02:05:27,+0000000000,+0000000000,-00017000,00,,,,,,,,,,,,,2025-12-03 11:34:57,00.08,112,-00.07,00.03,00.04,23.61,37.95,1009.66,179.5,179.7,214
2025-12-03 11:34:58,2025-12-03 11:34:57,1010.13,+2287,3.44,+2399,2015/10/18,02:05:28,+0000000000,+0000000000,-00017000,00,2025-12-03 11:34:57,4.7,310.1,744.1,1.4539,12.2,0000.00000,00000.00000,0.0,0,03/12/25,11:36:04,2025-12-03 11:34:58,00.05,108,-00.05,00.02,00.02,23.55,37.89,1009.65,179.5,179.8,215
2025-12-03 11:34:59,2025-12-03 11:34:58,1010.17,+2289,3.44,+2399,2015/10/18,02:05:29,+0000000000,+0000000000,-00017000,00,,,,,,,,,,,,,2025-12-03 11:34:59,00.08,132,-00.06,00.05,00.03,23.46,37.87,1009.65,179.5,179.7,218
2025-12-03 11:35:00,2025-12-03 11:34:59,1010.15,+2287,3.45,+2400,2015/10/18,02:05:30,+0000000000,+0000000000,-00017000,00,,,,,,,,,,,,,2025-12-03 11:35:00,00.07,129,-00.05,00.04,00.03,23.42,37.86,1009.64,179.5,179.8,218
2025-12-03 11:35:01,2025-12-03 11:35:00,1010.2,+2287,3.44,+2400,2015/10/18,02:05:31,+0000000000,+0000000000,-00017000,00,,,,,,,,,,,,,2025-12-03 11:35:01,00.10,118,-00.08,00.04,00.03,23.44,37.92,1009.62,179.5,179.8,219
2025-12-03 11:35:02,2025-12-03 11:35:01,1010.19,+2290,3.44,+2399,2015/10/18,02:05:32,+0000000000,+0000000000,-00017000,00,,,,,,,,,,,,,2025-12-03 11:35:02,00.07,130,-00.05,00.04,00.02,23.47,37.88,1009.65,179.6,179.8,213
2025-12-03 11:35:03,2025-12-03 11:35:02,1010.11,+2289,3.44,+2399,2015/10/18,02:05:33,+0000000000,+0000000000,-00017000,00,,,,,,,,,,,,,2025-12-03 11:35:03,00.08,108,-00.07,00.02,00.03,23.48,37.90,1009.63,179.5,179.8,213
2025-12-03 11:35:04,2025-12-03 11:35:03,1010.21,+2288,3.44,+2399,2015/10/18,02:05:34,+0000000000,+0000000000,-00017000,00,,,,,,,,,,,,,2025-12-03 11:35:04,00.07,112,-00.06,00.02,00.03,23.52,37.92,1009.63,179.5,179.8,215
2025-12-03 11:35:05,2025-12-03 11:35:04,1010.2,+2289,3.44,+2399,2015/10/18,02:05:35,+0000000000,+0000000000,-00017000,00,,,,,,,,,,,,,2025-12-03 11:35:05,00.08,125,-00.05,00.04,00.04,23.54,37.91,1009.66,179.5,179.8,216
2025-12-03 11:35:06,2025-12-03 11:35:05,1010.13,+2289,3.45,+2399,2015/10/18,02:05:36,+0000000000,+0000000000,-00017000,00,,,,,,,,,,,,,2025-12-03 11:35:06,00.09,113,-00.08,00.03,00.03,23.54,37.91,1009.61,179.5,179.8,214
2025-12-03 11:35:07,2025-12-03 11:35:06,1010.21,+2286,3.44,+2399,2015/10/18,02:05:37,+0000000000,+0000000000,-00017000,00,,,,,,,,,,,,,2025-12-03 11:35:07,00.07,137,-00.04,00.04,00.04,23.52,37.85,1009.65,179.5,179.8,213
2025-12-03 11:35:08,2025-12-03 11:35:07,1010.15,+2289,3.45,+2399,2015/10/18,02:05:38,+0000000000,+0000000000,-00017000,00,2025-12-03 11:35:07,3.9,310.1,744.6,1.4539,12.2,0000.00000,00000.00000,0.0,0,03/12/25,11:36:14,2025-12-03 11:35:08,00.09,121,-00.07,00.04,00.03,23.43,37.91,1009.64,179.5,179.8,214
2025-12-03 11:35:09,2025-12-03 11:35:08,1010.19,+2287,3.45,+2399,2015/10/18,02:05:39,+0000000000,+0000000000,-00017000,00,,,,,,,,,,,,,2025-12-03 11:35:09,00.09,113,-00.07,00.03,00.04,23.47,37.90,1009.65,179.5,179.7,216
2025-12-03 11:35:10,2025-12-03 11:35:09,1010.13,+2289,3.45,+2399,2015/10/18,02:05:40,+0000000000,+0000000000,-00017000,00,,,,,,,,,,,,,2025-12-03 11:35:10,00.08,118,-00.07,00.03,00.04,23.50,37.94,1009.65,179.5,179.8,218
2025-12-03 11:35:11,2025-12-03 11:35:10,1010.13,+2290,3.45,+2399,2015/10/18,02:05:41,+0000000000,+0000000000,-00017000,00,,,,,,,,,,,,,2025-12-03 11:35:11,00.09,136,-00.06,00.06,00.03,23.46,37.90,1009.64,179.5,179.8,215
2025-12-03 11:35:12,2025-12-03 11:35:11,1010.15,+2291,3.45,+2397,2015/10/18,02:05:42,+0000000000,+0000000000,-00017000,00,,,,,,,,,,,,,2025-12-03 11:35:12,00.07,131,-00.05,00.04,00.03,23.44,37.93,1009.64,179.5,179.8,219
2025-12-03 11:35:13,2025-12-03 11:35:12,1010.19,+2288,3.45,+2399,2015/10/18,02:05:43,+0000000000,+0000000000,-00017000,00,,,,,,,,,,,,,2025-12-03 11:35:13,00.05,127,-00.04,00.03,00.02,23.48,37.90,1009.67,179.5,179.8,217
2025-12-03 11:35:14,2025-12-03 11:35:13,1010.16,+2291,3.45,+2397,2015/10/18,02:05:44,+0000000000,+0000000000,-00017000,00,,,,,,,,,,,,,2025-12-03 11:35:14,00.08,109,-00.07,00.03,00.03,23.54,37.93,1009.65,179.5,179.8,216
2025-12-03 11:35:15,2025-12-03 11:35:14,1010.11,+2289,3.45,+2399,2015/10/18,02:05:45,+0000000000,+0000000000,-00017000,00,,,,,,,,,,,,,2025-12-03 11:35:15,00.10,117,-00.08,00.04,00.04,23.51,37.93,1009.64,179.5,179.8,216
2025-12-03 11:35:16,2025-12-03 11:35:15,1010.16,+2295,3.45,+2399,2015/10/18,02:05:46,+0000000000,+0000000000,-00017000,00,,,,,,,,,,,,,2025-12-03 11:35:16,00.11,116,-00.09,00.04,00.04,23.64,37.90,1009.64,179.5,179.8,218
2025-12-03 11:35:17,2025-12-03 11:35:16,1010.18,+2292,3.45,+2399,2015/10/18,02:05:47,+0000000000,+0000000000,-00017000,00,,,,,,,,,,,,,2025-12-03 11:35:17,00.06,129,-00.04,00.03,00.04,23.66,37.92,1009.63,179.5,179.7,213
2025-12-03 11:35:18,2025-12-03 11:35:17,1010.16,+2289,3.45,+2399,2015/10/18,02:05:48,+0000000000,+0000000000,-00017000,00,2025-12-03 11:35:17,5.3,310.1,744.3,1.4539,12.2,0000.00000,00000.00000,0.0,0,03/12/25,11:36:24,2025-12-03 11:35:18,00.09,117,-00.07,00.04,00.04,23.67,37.90,1009.65,179.5,179.8,216
2025-12-03 11:35:19,2025-12-03 11:35:18,1010.22,+2290,3.45,+2399,2015/10/18,02:05:49,+0000000000,+0000000000,-00017000,00,,,,,,,,,,,,,2025-12-03 11:35:19,00.08,121,-00.06,00.03,00.04,23.70,37.87,1009.62,179.5,179.7,213
2025-12-03 11:35:20,2025-12-03 11:35:19,1010.14,+2292,3.45,+2399,2015/10/18,02:05:50,+0000000000,+0000000000,-00017000,00,,,,,,,,,,,,,2025-12-03 11:35:20,00.09,118,-00.08,00.04,00.02,23.72,37.95,1009.64,179.5,179.7,215
2025-12-03 11:35:21,2025-12-03 11:35:20,1010.17,+2288,3.45,+2400,2015/10/18,02:05:51,+0000000000,+0000000000,-00017000,00,,,,,,,,,,,,,2025-12-03 11:35:21,00.10,134,-00.07,00.07,00.04,23.63,37.89,1009.65,179.5,179.8,217
2025-12-03 11:35:22,2025-12-03 11:35:21,1010.2,+2291,3.46,+2399,2015/10/18,02:05:52,+0000000000,+0000000000,-00017000,00,,,,,,,,,,,,,2025-12-03 11:35:22,00.09,124,-00.07,00.04,00.04,23.48,37.90,1009.64,179.5,179.7,215
2025-12-03 11:35:23,2025-12-03 11:35:22,1010.16,+2291,3.46,+2400,2015/10/18,02:05:53,+0000000000,+0000000000,-00017000,00,,,,,,,,,,,,,2025-12-03 11:35:23,00.07,134,-00.05,00.05,00.02,23.49,37.93,1009.64,179.5,179.8,213
2025-12-03 11:35:24,2025-12-03 11:35:23,1010.14,+2289,3.46,+2399,2015/10/18,02:05:54,+0000000000,+0000000000,-00017000,00,,,,,,,,,,,,,2025-12-03 11:35:24,00.08,130,-00.06,00.05,00.03,23.49,37.94,1009.65,179.5,179.8,213
2025-12-03 11:35:25,2025-12-03 11:35:24,1010.14,+2291,3.45,+2400,2015/10/18,02:05:55,+0000000000,+0000000000,-00017000,00,,,,,,,,,,,,,2025-12-03 11:35:25,00.08,140,-00.05,00.06,00.03,23.43,37.92,1009.64,179.5,179.8,215
2025-12-03 11:35:26,2025-12-03 11:35:25,1010.15,+2296,3.46,+2400,2015/10/18,02:05:56,+0000000000,+0000000000,-00017000,00,,,,,,,,,,,,,2025-12-03 11:35:26,00.09,125,-00.06,00.04,00.04,23.46,37.90,1009.63,179.5,179.7,214
2025-12-03 11:35:27,2025-12-03 11:35:26,1010.13,+2290,3.45,+2400,2015/10/18,02:05:57,+0000000000,+0000000000,-00017000,00,,,,,,,,,,,,,2025-12-03 11:35:27,00.10,126,-00.08,00.05,00.04,23.56,37.93,1009.64,179.5,179.8,217
2025-12-03 11:35:28,2025-12-03 11:35:27,1010.14,+2290,3.46,+2400,2015/10/18,02:05:58,+0000000000,+0000000000,-00017000,00,2025-12-03 11:35:27,5.6,310.1,743.3,1.4539,12.2,0000.00000,00000.00000,0.0,0,03/12/25,11:36:34,2025-12-03 11:35:28,00.08,110,-00.07,00.03,00.03,23.59,37.92,1009.60,179.5,179.8,215
2025-12-03 11:35:29,2025-12-03 11:35:28,1010.17,+2292,3.46,+2399,2015/10/18,02:05:59,+0000000000,+0000000000,-00017000,00,,,,,,,,,,,,,2025-12-03 11:35:29,00.07,115,-00.05,00.03,00.04,23.59,37.94,1009.63,179.5,179.8,213
2025-12-03 11:35:30,2025-12-03 11:35:29,1010.17,+2290,3.46,+2399,2015/10/18,02:06:00,+0000000000,+0000000000,-00017000,00,,,,,,,,,,,,,2025-12-03 11:35:30,00.07,124,-00.05,00.04,00.04,23.62,37.90,1009.66,179.5,179.8,212
2025-12-03 11:35:31,2025-12-03 11:35:30,1010.13,+2292,3.46,+2399,2015/10/18,02:06:01,+0000000000,+0000000000,-00017000,00,,,,,,,,,,,,,2025-12-03 11:35:31,00.08,117,-00.06,00.03,00.02,23.67,37.95,1009.65,179.5,179.8,212
