merge_timestamp,imet_Timestamp,imet_pressure,imet_temp,imet_rel_hum,imet_hum_temp,imet_date,imet_time,imet_longitude,imet_latitude,imet_altitude,imet_sat,pom_Timestamp,pom_Ozone_ppb,pom_Cell_Temperature_K,pom_Cell_Pressure_torr,pom_Photodiode_Voltage_V,pom_Power_Supply_V,pom_Latitude,pom_Longitude,pom_Altitude_m,pom_GPS_Quality,pom_Date,pom_Time,trisonica_Timestamp,trisonica_Wind_Speed,trisonica_Wind_Direction,trisonica_U_Vector,trisonica_V_Vector,trisonica_W_Vector,trisonica_Temperature,trisonica_Relative_Humidity,trisonica_Pressure,trisonica_Compass_Heading,trisonica_Pitch,trisonica_Roll,spectro_Timestamp,spectro_peak_wavelength,spectro_max_intensity,spectro_mean_intensity,spectro_std_intensity,spectro_total_points,spectro_status,partector2pro_Timestamp,partector2pro_time_since_start_s,partector2pro_charger_diffusion_current_nA,partector2pro_charger_high_voltage_V,partector2pro_electrometer1_mV,partector2pro_electrometer2_mV,partector2pro_electrometer1_amplitude_mV,partector2pro_electrometer2_amplitude_mV,partector2pro_temperature_C,partector2pro_relative_humidity_percent,partector2pro_status,partector2pro_precipitator_voltage_V,partector2pro_battery_voltage_V,partector2pro_flow_lpm,partector2pro_LDSA_um2_cm3,partector2pro_diameter_nm,partector2pro_number_1_cm3,partector2pro_orifice_pressure_Pa,partector2pro_absolute_pressure_mbar
2026-01-12 11:26:43,2026-01-12 11:26:43,1006.4,+2164,3.17,+2262,2015/10/18,00:20:38,+0000000000,+0000000000,-00017000,00,,,,,,,,,,,,,2026-01-12 11:26:43,00.05,045,-00.02,-00.02,00.05,22.90,35.51,1005.60,-179.9,-178.2,207,2026-01-12 11:26:42,627.2004,1878.00,1452.54,18.61,2048,success,,,,,,,,,,,,,,,,,,,
2026-01-12 11:26:44,2026-01-12 11:26:44,1006.36,+2167,3.17,+2263,2015/10/18,00:20:39,+0000000000,+0000000000,-00017000,00,,,,,,,,,,,,,2026-01-12 11:26:44,00.05,060,-00.02,-00.01,00.04,22.89,35.52,1005.59,-179.9,-178.2,210,2026-01-12 11:26:44,627.2004,1839.00,1452.68,18.15,2048,success,2026-01-12 11:26:44,1144.0,2.0,3385.0,1.37,0.31,2.351,0.504,22.3,37.0,0.0,721.0,4.2,0.499,15.0,26.2,8645.0,4716.0,1007.0
2026-01-12 11:26:45,2026-01-12 11:26:45,1006.34,+2165,3.17,+2260,2015/10/18,00:20:40,+0000000000,+0000000000,-00017000,00,,,,,,,,,,,,,2026-01-12 11:26:45,00.05,071,-00.03,-00.01,00.03,22.89,35.46,1005.55,-180.0,-178.2,208,2026-01-12 11:26:44,627.2004,1864.00,1452.57,18.47,2048,success,2026-01-12 11:26:45,1145.0,0.0,301.0,0.06,0.5,2.295,0.526,22.2,37.0,0.0,721.0,4.2,0.5,14.6,26.2,8645.0,4703.0,1007.0
2026-01-12 11:26:46,2026-01-12 11:26:46,1006.37,+2164,3.17,+2262,2015/10/18,00:20:41,+0000000000,+0000000000,-00017000,00,2026-01-12 11:26:45,17.3,307.9,739.4,1.4985,12.2,0000.00000,00000.00000,0.0,0,12/01/26,11:32:42,2026-01-12 11:26:46,00.05,115,-00.02,00.01,00.05,22.88,35.52,1005.58,-179.9,-178.2,210,2026-01-12 11:26:46,627.2004,1857.00,1452.50,18.72,2048,success,2026-01-12 11:26:46,1146.0,1.99,3383.0,1.56,0.19,2.301,0.484,22.2,37.0,0.0,720.0,4.2,0.5,14.7,26.2,8645.0,4704.0,1007.0
2026-01-12 11:26:47,2026-01-12 11:26:47,1006.37,+2167,3.16,+2260,2015/10/18,00:20:42,+0000000000,+0000000000,-00017000,00,,,,,,,,,,,,,2026-01-12 11:26:47,00.06,111,-00.04,00.01,00.04,22.87,35.53,1005.60,-179.9,-178.2,208,2026-01-12 11:26:47,627.2004,1869.00,1452.47,18.51,2048,success,,,,,,,,,,,,,,,,,,,
2026-01-12 11:26:48,2026-01-12 11:26:48,1006.46,+2167,3.15,+2260,2015/10/18,00:20:43,+0000000000,+0000000000,-00017000,00,,,,,,,,,,,,,2026-01-12 11:26:48,00.05,092,-00.04,00.00,00.04,22.85,35.53,1005.60,-179.9,-178.1,207,2026-01-12 11:26:47,627.2004,1844.00,1452.87,18.48,2048,success,2026-01-12 11:26:48,1148.0,2.01,3385.0,1.25,0.31,2.124,0.321,22.3,37.0,0.0,1199.0,4.2,0.5,13.5,27.2,7900.0,4701.0,1007.0
2026-01-12 11:26:49,2026-01-12 11:26:49,1006.39,+2167,3.15,+2260,2015/10/18,00:20:44,+0000000000,+0000000000,-00017000,00,,,,,,,,,,,,,2026-01-12 11:26:49,00.05,097,-00.03,00.00,00.04,22.86,35.50,1005.60,-180.0,-178.2,209,2026-01-12 11:26:49,627.2004,1852.00,1452.83,18.39,2048,success,2026-01-12 11:26:49,1149.0,0.0,305.0,0.56,0.19,2.217,0.203,22.3,37.0,0.0,1201.0,4.2,0.499,14.1,27.2,7900.0,4701.0,1007.0
2026-01-12 11:26:50,2026-01-12 11:26:50,1006.41,+2165,3.15,+2260,2015/10/18,00:20:45,+0000000000,+0000000000,-00017000,00,,,,,,,,,,,,,2026-01-12 11:26:50,00.05,124,-00.03,00.02,00.03,22.85,35.53,1005.59,-179.9,-178.2,208,2026-01-12 11:26:50,627.2004,1894.00,1453.28,18.70,2048,success,2026-01-12 11:26:50,1150.0,2.0,3383.0,1.18,0.25,2.226,0.129,22.3,37.0,0.0,1201.0,4.2,0.5,14.2,27.2,7900.0,4697.0,1007.0
2026-01-12 11:26:51,2026-01-12 11:26:51,1006.44,+2167,3.14,+2262,2015/10/18,00:20:46,+0000000000,+0000000000,-00017000,00,,,,,,,,,,,,,2026-01-12 11:26:51,00.06,101,-00.04,00.01,00.04,22.81,35.47,1005.60,-179.9,-178.2,205,2026-01-12 11:26:50,627.2004,1866.00,1452.52,18.34,2048,success,2026-01-12 11:26:51,1151.0,0.0,301.0,0.12,0.06,2.284,0.126,22.3,37.0,0.0,1200.0,4.19,0.5,14.6,27.2,7900.0,4701.0,1007.0
2026-01-12 11:26:52,2026-01-12 11:26:52,1006.45,+2168,3.14,+2262,2015/10/18,00:20:47,+0000000000,+0000000000,-00017000,00,,,,,,,,,,,,,2026-01-12 11:26:52,00.05,107,-00.04,00.01,00.04,22.80,35.52,1005.58,-179.9,-178.1,208,2026-01-12 11:26:52,627.2004,1860.00,1452.65,18.63,2048,success,2026-01-12 11:26:52,1152.0,2.0,3384.0,1.49,0.37,2.345,0.092,22.3,37.0,0.0,1199.0,4.19,0.5,15.0,27.2,7900.0,4710.0,1007.0
2026-01-12 11:26:53,2026-01-12 11:26:53,1006.44,+2165,3.15,+2260,2015/10/18,00:20:48,+0000000000,+0000000000,-00017000,00,,,,,,,,,,,,,2026-01-12 11:26:53,00.06,112,-00.04,00.02,00.04,22.81,35.51,1005.61,-180.0,-178.2,210,2026-01-12 11:26:52,627.2004,1859.00,1452.72,18.47,2048,success,2026-01-12 11:26:53,1153.0,0.0,302.0,0.12,1.74,2.321,0.362,22.3,37.0,0.0,89.0,4.2,0.5,14.8,29.2,7621.0,4698.0,1007.0
2026-01-12 11:26:54,2026-01-12 11:26:54,1006.34,+2165,3.15,+2260,2015/10/18,00:20:49,+0000000000,+0000000000,-00017000,00,,,,,,,,,,,,,2026-01-12 11:26:54,00.08,104,-00.05,00.01,00.05,22.84,35.53,1005.60,-179.9,-178.2,208,2026-01-12 11:26:53,627.2004,1875.00,1452.10,18.30,2048,success,2026-01-12 11:26:54,1154.0,2.0,3383.0,1.37,-0.44,2.312,0.659,22.2,37.0,0.0,100.0,4.2,0.499,14.7,29.2,7621.0,4692.0,1007.0
2026-01-12 11:26:55,2026-01-12 11:26:55,1006.4,+2167,3.14,+2260,2015/10/18,00:20:50,+0000000000,+0000000000,-00017000,00,,,,,,,,,,,,,2026-01-12 11:26:55,00.04,117,-00.03,00.01,00.03,22.86,35.53,1005.58,-179.9,-178.2,209,2026-01-12 11:26:55,627.2004,1863.00,1453.17,18.58,2048,success,2026-01-12 11:26:55,1155.0,0.0,302.0,0.5,1.18,2.304,1.134,22.2,37.0,0.0,98.0,4.2,0.5,14.7,29.2,7621.0,4703.0,1007.0
2026-01-12 11:26:56,2026-01-12 11:26:56,1006.41,+2166,3.14,+2260,2015/10/18,00:20:51,+0000000000,+0000000000,-00017000,00,2026-01-12 11:26:55,16.3,307.9,739.3,1.4991,12.2,0000.00000,00000.00000,0.0,0,12/01/26,11:32:52,2026-01-12 11:26:56,00.03,132,-00.02,00.02,00.02,22.87,35.49,1005.58,-179.9,-178.2,209,2026-01-12 11:26:55,627.2004,1838.00,1452.61,18.38,2048,success,2026-01-12 11:26:56,1156.0,2.0,3384.0,1.31,-0.56,2.38,1.575,22.2,37.0,0.0,99.0,4.2,0.5,15.2,29.2,7621.0,4699.0,1007.0
2026-01-12 11:26:57,2026-01-12 11:26:57,1006.4,+2169,3.13,+2260,2015/10/18,00:20:52,+0000000000,+0000000000,-00017000,00,,,,,,,,,,,,,2026-01-12 11:26:57,00.04,139,-00.01,00.02,00.03,22.86,35.48,1005.55,-179.9,-178.2,207,2026-01-12 11:26:57,627.2004,1856.00,1452.81,18.34,2048,success,2026-01-12 11:26:57,1157.0,0.0,302.0,0.12,1.12,2.405,1.72,22.3,37.0,0.0,99.0,4.19,0.5,15.3,29.2,7621.0,4709.0,1007.0
2026-01-12 11:26:58,2026-01-12 11:26:58,1006.4,+2164,3.12,+2260,2015/10/18,00:20:53,+0000000000,+0000000000,-00017000,00,,,,,,,,,,,,,2026-01-12 11:26:58,00.03,126,-00.01,00.01,00.03,22.82,35.48,1005.62,-180.0,-178.2,209,2026-01-12 11:26:58,627.2004,1845.00,1452.74,18.33,2048,success,2026-01-12 11:26:58,1158.0,1.98,3387.0,1.56,-0.62,2.448,1.819,22.3,37.0,0.0,99.0,4.2,0.5,15.6,29.2,7621.0,4703.0,1007.0
2026-01-12 11:26:59,2026-01-12 11:26:59,1006.38,+2162,3.12,+2260,2015/10/18,00:20:54,+0000000000,+0000000000,-00017000,00,,,,,,,,,,,,,2026-01-12 11:26:59,00.05,117,-00.03,00.01,00.04,22.81,35.48,1005.59,-179.9,-178.1,206,2026-01-12 11:26:58,627.2004,1843.00,1452.34,18.04,2048,success,,,,,,,,,,,,,,,,,,,
2026-01-12 11:27:00,2026-01-12 11:27:00,1006.43,+2163,3.11,+2262,2015/10/18,00:20:55,+0000000000,+0000000000,-00017000,00,,,,,,,,,,,,,2026-01-12 11:27:00,00.05,078,-00.01,-00.00,00.04,22.82,35.50,1005.61,-179.9,-178.2,206,2026-01-12 11:27:00,627.2004,1864.00,1452.60,18.72,2048,success,2026-01-12 11:27:00,1160.0,1.99,3385.0,0.93,-0.31,2.341,1.515,22.3,37.0,0.0,357.0,4.19,0.5,14.9,25.0,9102.0,4700.0,1007.0
2026-01-12 11:27:01,2026-01-12 11:27:01,1006.41,+2165,3.11,+2262,2015/10/18,00:20:56,+0000000000,+0000000000,-00017000,00,,,,,,,,,,,,,2026-01-12 11:27:01,00.04,069,-00.03,-00.01,00.03,22.85,35.49,1005.60,-179.9,-178.2,206,2026-01-12 11:27:01,627.2004,1858.00,1453.72,18.47,2048,success,2026-01-12 11:27:01,1161.0,0.0,301.0,0.37,0.68,2.316,1.314,22.3,37.0,0.0,359.0,4.2,0.5,14.8,25.0,9102.0,4701.0,1007.0
2026-01-12 11:27:02,2026-01-12 11:27:02,1006.44,+2165,3.12,+2262,2015/10/18,00:20:57,+0000000000,+0000000000,-00017000,00,,,,,,,,,,,,,2026-01-12 11:27:02,00.06,134,-00.03,00.03,00.04,22.83,35.49,1005.64,-179.9,-178.2,208,2026-01-12 11:27:01,627.2004,1864.00,1453.13,18.45,2048,success,2026-01-12 11:27:02,1162.0,1.98,3385.0,0.93,0.0,2.223,1.174,22.3,37.0,0.0,359.0,4.2,0.5,14.2,25.0,9102.0,4727.0,1007.0
2026-01-12 11:27:03,2026-01-12 11:27:03,1006.48,+2164,3.12,+2260,2015/10/18,00:20:58,+0000000000,+0000000000,-00017000,00,,,,,,,,,,,,,2026-01-12 11:27:03,00.05,044,-00.02,-00.02,00.04,22.83,35.51,1005.61,-180.0,-178.2,208,2026-01-12 11:27:03,627.2004,1859.00,1453.07,18.46,2048,success,2026-01-12 11:27:03,1163.0,0.0,298.0,0.19,0.5,2.244,1.174,22.3,37.0,0.0,359.0,4.2,0.5,14.3,25.0,9102.0,4703.0,1007.0
2026-01-12 11:27:04,2026-01-12 11:27:04,1006.38,+2165,3.12,+2260,2015/10/18,00:20:59,+0000000000,+0000000000,-00017000,00,,,,,,,,,,,,,2026-01-12 11:27:04,00.04,125,-00.01,00.01,00.03,22.83,35.50,1005.61,-179.9,-178.2,205,2026-01-12 11:27:03,627.2004,1860.00,1452.82,18.43,2048,success,2026-01-12 11:27:04,1164.0,2.0,3385.0,1.62,0.12,2.253,1.128,22.3,37.0,0.0,360.0,4.2,0.5,14.4,25.0,9102.0,4701.0,1007.0
2026-01-12 11:27:05,2026-01-12 11:27:05,1006.4,+2164,3.11,+2260,2015/10/18,00:21:00,+0000000000,+0000000000,-00017000,00,,,,,,,,,,,,,2026-01-12 11:27:05,00.05,068,-00.02,-00.01,00.05,22.82,35.48,1005.61,-179.9,-178.2,210,2026-01-12 11:27:04,627.2004,1877.00,1452.81,18.69,2048,success,2026-01-12 11:27:05,1165.0,0.0,300.0,0.5,0.19,2.253,0.998,22.3,37.0,0.0,720.0,4.19,0.5,14.4,29.8,7274.0,4704.0,1007.0
2026-01-12 11:27:06,2026-01-12 11:27:06,1006.45,+2170,3.1,+2260,2015/10/18,00:21:01,+0000000000,+0000000000,-00017000,00,2026-01-12 11:27:05,16.9,307.9,739.2,1.4997,12.2,0000.00000,00000.00000,0.0,0,12/01/26,11:33:02,2026-01-12 11:27:06,00.05,104,-00.02,00.00,00.05,22.81,35.52,1005.61,-179.9,-178.2,206,2026-01-12 11:27:06,627.2004,1862.00,1452.48,18.47,2048,success,2026-01-12 11:27:06,1166.0,2.01,3380.0,1.18,0.37,2.317,0.886,22.3,37.0,0.0,720.0,4.19,0.5,14.8,29.8,7274.0,4703.0,1007.0
2026-01-12 11:27:07,2026-01-12 11:27:07,1006.44,+2167,3.1,+2260,2015/10/18,00:21:02,+0000000000,+0000000000,-00017000,00,,,,,,,,,,,,,2026-01-12 11:27:07,00.02,092,-00.01,00.00,00.01,22.83,35.47,1005.62,-179.9,-178.2,209,2026-01-12 11:27:06,627.2004,1861.00,1452.83,18.36,2048,success,2026-01-12 11:27:07,1167.0,0.0,302.0,0.62,0.44,2.343,0.713,22.3,37.0,0.0,721.0,4.2,0.499,14.9,29.8,7274.0,4727.0,1007.0
2026-01-12 11:27:08,2026-01-12 11:27:08,1006.42,+2162,3.09,+2260,2015/10/18,00:21:03,+0000000000,+0000000000,-00017000,00,,,,,,,,,,,,,2026-01-12 11:27:08,00.04,107,-00.02,00.01,00.04,22.82,35.48,1005.62,-180.0,-178.2,206,2026-01-12 11:27:08,627.2004,1864.00,1452.90,18.47,2048,success,2026-01-12 11:27:08,1168.0,1.99,3385.0,1.37,0.25,2.412,0.551,22.3,37.0,0.0,721.0,4.2,0.5,15.4,29.8,7274.0,4703.0,1007.0
2026-01-12 11:27:09,2026-01-12 11:27:09,1006.45,+2163,3.09,+2260,2015/10/18,00:21:04,+0000000000,+0000000000,-00017000,00,,,,,,,,,,,,,2026-01-12 11:27:09,00.04,162,-00.01,00.02,00.03,22.81,35.50,1005.61,-180.0,-178.2,208,2026-01-12 11:27:09,627.2004,1862.00,1453.01,18.36,2048,success,2026-01-12 11:27:09,1169.0,0.0,302.0,0.06,0.25,2.411,0.564,22.3,37.0,0.0,719.0,4.2,0.5,15.4,29.8,7274.0,4703.0,1007.0
2026-01-12 11:27:10,2026-01-12 11:27:10,1006.43,+2164,3.09,+2260,2015/10/18,00:21:05,+0000000000,+0000000000,-00017000,00,,,,,,,,,,,,,2026-01-12 11:27:10,00.05,073,-00.02,-00.01,00.04,22.78,35.49,1005.62,-180.0,-178.2,208,2026-01-12 11:27:09,627.2004,1864.00,1452.98,18.46,2048,success,2026-01-12 11:27:10,1170.0,1.99,3384.0,1.31,0.37,2.431,0.535,22.3,37.0,0.0,721.0,4.2,0.5,15.5,29.8,7274.0,4702.0,1007.0
2026-01-12 11:27:11,2026-01-12 11:27:11,1006.46,+2165,3.09,+2260,2015/10/18,00:21:06,+0000000000,+0000000000,-00017000,00,,,,,,,,,,,,,2026-01-12 11:27:11,00.07,106,-00.04,00.01,00.05,22.78,35.48,1005.63,-179.9,-178.1,210,2026-01-12 11:27:11,627.2004,1855.00,1453.22,18.53,2048,success,2026-01-12 11:27:11,1171.0,0.0,300.0,0.25,0.44,2.413,0.391,22.3,37.0,0.0,1201.0,4.2,0.5,15.4,29.6,7583.0,4702.0,1007.0
2026-01-12 11:27:12,2026-01-12 11:27:12,1006.43,+2162,3.09,+2260,2015/10/18,00:21:07,+0000000000,+0000000000,-00017000,00,,,,,,,,,,,,,2026-01-12 11:27:12,00.06,114,-00.03,00.02,00.05,22.77,35.48,1005.64,-179.9,-178.2,208,2026-01-12 11:27:12,627.2004,1832.00,1453.13,17.20,2048,success,2026-01-12 11:27:12,1172.0,1.99,3383.0,1.49,0.5,2.4,0.257,22.3,37.0,0.0,1201.0,4.2,0.499,15.3,29.6,7583.0,4698.0,1007.0
2026-01-12 11:27:13,2026-01-12 11:27:13,1006.43,+2164,3.09,+2259,2015/10/18,00:21:08,+0000000000,+0000000000,-00017000,00,,,,,,,,,,,,,2026-01-12 11:27:13,00.06,101,-00.04,00.01,00.05,22.79,35.49,1005.61,-180.0,-178.2,210,2026-01-12 11:27:12,627.2004,1844.00,1452.89,17.36,2048,success,2026-01-12 11:27:13,1173.0,0.0,304.0,0.25,0.06,2.395,0.096,22.3,37.0,0.0,1200.0,4.2,0.5,15.3,29.6,7583.0,4699.0,1007.0
2026-01-12 11:27:14,2026-01-12 11:27:14,1006.52,+2160,3.1,+2260,2015/10/18,00:21:09,+0000000000,+0000000000,-00017000,00,,,,,,,,,,,,,2026-01-12 11:27:14,00.05,101,-00.03,00.01,00.04,22.80,35.49,1005.62,-180.0,-178.2,205,2026-01-12 11:27:14,627.2004,1857.00,1453.02,17.71,2048,success,2026-01-12 11:27:14,1174.0,2.0,3381.0,1.0,0.19,2.387,0.053,22.3,37.0,0.0,1199.0,4.2,0.5,15.2,29.6,7583.0,4703.0,1007.0
2026-01-12 11:27:15,2026-01-12 11:27:15,1006.39,+2162,3.1,+2260,2015/10/18,00:21:10,+0000000000,+0000000000,-00017000,00,,,,,,,,,,,,,2026-01-12 11:27:15,00.05,118,-00.03,00.02,00.04,22.79,35.52,1005.61,-180.0,-178.1,208,2026-01-12 11:27:15,627.2004,1866.00,1452.95,18.01,2048,success,2026-01-12 11:27:15,1175.0,0.0,301.0,0.56,0.5,2.45,0.026,22.3,37.0,0.0,1200.0,4.2,0.5,15.6,29.6,7583.0,4702.0,1007.0
2026-01-12 11:27:16,2026-01-12 11:27:16,1006.37,+2162,3.1,+2260,2015/10/18,00:21:11,+0000000000,+0000000000,-00017000,00,2026-01-12 11:27:15,15.9,307.9,739.7,1.5004,12.2,0000.00000,00000.00000,0.0,0,12/01/26,11:33:12,2026-01-12 11:27:16,00.04,103,-00.02,00.01,00.03,22.79,35.51,1005.57,-179.9,-178.2,208,2026-01-12 11:27:16,627.2004,1885.00,1453.03,17.95,2048,success,2026-01-12 11:27:16,1176.0,2.01,3383.0,1.31,0.12,2.369,0.014,22.3,37.0,0.0,1197.0,4.2,0.5,15.1,29.6,7583.0,4706.0,1007.0
2026-01-12 11:27:17,2026-01-12 11:27:17,1006.45,+2163,3.1,+2262,2015/10/18,00:21:12,+0000000000,+0000000000,-00017000,00,,,,,,,,,,,,,2026-01-12 11:27:17,00.05,151,-00.01,00.02,00.04,22.80,35.50,1005.59,-180.0,-178.2,210,2026-01-12 11:27:17,627.2004,1871.00,1453.33,17.85,2048,success,2026-01-12 11:27:17,1177.0,0.0,302.0,0.69,1.31,2.404,0.339,22.3,37.0,0.0,90.0,4.19,0.499,15.3,26.3,8695.0,4683.0,1007.0
2026-01-12 11:27:18,2026-01-12 11:27:18,1006.45,+2165,3.1,+2260,2015/10/18,00:21:13,+0000000000,+0000000000,-00017000,00,,,,,,,,,,,,,2026-01-12 11:27:18,00.05,108,-00.03,00.01,00.04,22.79,35.51,1005.63,-179.9,-178.2,206,2026-01-12 11:27:17,627.2004,1882.00,1453.21,18.00,2048,success,2026-01-12 11:27:18,1178.0,2.0,3385.0,1.18,-0.5,2.365,0.7,22.3,37.0,0.0,100.0,4.18,0.5,15.1,26.3,8695.0,4703.0,1007.0
2026-01-12 11:27:19,2026-01-12 11:27:19,1006.37,+2163,3.1,+2260,2015/10/18,00:21:14,+0000000000,+0000000000,-00017000,00,,,,,,,,,,,,,2026-01-12 11:27:19,00.05,114,-00.02,00.01,00.05,22.81,35.52,1005.59,-179.9,-178.2,208,2026-01-12 11:27:19,627.2004,1857.00,1453.38,17.70,2048,success,2026-01-12 11:27:19,1179.0,0.0,301.0,0.93,0.81,2.277,1.214,22.3,37.0,0.0,100.0,4.19,0.5,14.5,26.3,8695.0,4702.0,1007.0
2026-01-12 11:27:20,2026-01-12 11:27:20,1006.41,+2163,3.1,+2260,2015/10/18,00:21:15,+0000000000,+0000000000,-00017000,00,,,,,,,,,,,,,2026-01-12 11:27:20,00.02,164,-00.00,00.01,00.01,22.85,35.49,1005.63,-180.0,-178.2,207,2026-01-12 11:27:20,627.2004,1861.00,1453.03,17.45,2048,success,2026-01-12 11:27:20,1180.0,2.0,3385.0,1.31,-0.75,2.282,1.607,22.3,37.0,0.0,100.0,4.2,0.5,14.6,26.3,8695.0,4703.0,1007.0
2026-01-12 11:27:21,2026-01-12 11:27:21,1006.42,+2163,3.1,+2260,2015/10/18,00:21:16,+0000000000,+0000000000,-00017000,00,,,,,,,,,,,,,2026-01-12 11:27:21,00.05,092,-00.03,00.00,00.04,22.84,35.51,1005.61,-179.9,-178.2,207,2026-01-12 11:27:20,627.2004,1855.00,1452.97,17.68,2048,success,2026-01-12 11:27:21,1181.0,0.0,301.0,0.19,1.87,2.271,1.746,22.3,37.0,0.0,98.0,4.2,0.5,14.5,26.3,8695.0,4700.0,1007.0
2026-01-12 11:27:22,2026-01-12 11:27:22,1006.44,+2163,3.1,+2260,2015/10/18,00:21:17,+0000000000,+0000000000,-00017000,00,,,,,,,,,,,,,2026-01-12 11:27:22,00.04,111,-00.03,00.01,00.04,22.83,35.51,1005.59,-180.0,-178.2,211,2026-01-12 11:27:22,627.2004,1875.00,1453.03,17.74,2048,success,2026-01-12 11:27:22,1182.0,1.98,3383.0,1.12,-0.5,2.266,1.825,22.3,37.0,0.0,100.0,4.2,0.499,14.5,26.3,8695.0,4671.0,1007.0
2026-01-12 11:27:23,2026-01-12 11:27:23,1006.39,+2164,3.1,+2260,2015/10/18,00:21:18,+0000000000,+0000000000,-00017000,00,,,,,,,,,,,,,2026-01-12 11:27:23,00.04,045,-00.01,-00.01,00.04,22.84,35.53,1005.58,-180.0,-178.2,206,2026-01-12 11:27:23,627.2004,1872.00,1453.22,18.06,2048,success,2026-01-12 11:27:23,1183.0,0.0,306.0,0.31,0.25,2.312,1.652,22.3,37.0,0.0,358.0,4.2,0.5,14.7,33.5,6899.0,4704.0,1007.0
2026-01-12 11:27:24,2026-01-12 11:27:24,1006.38,+2165,3.09,+2260,2015/10/18,00:21:19,+0000000000,+0000000000,-00017000,00,,,,,,,,,,,,,2026-01-12 11:27:24,00.06,043,-00.01,-00.01,00.05,22.82,35.48,1005.59,-180.0,-178.2,207,2026-01-12 11:27:24,627.2004,1888.00,1453.33,17.84,2048,success,2026-01-12 11:27:24,1184.0,2.0,3380.0,1.18,-0.31,2.361,1.539,22.3,37.0,0.0,359.0,4.2,0.5,15.1,33.5,6899.0,4703.0,1007.0
2026-01-12 11:27:25,2026-01-12 11:27:25,1006.37,+2163,3.09,+2260,2015/10/18,00:21:20,+0000000000,+0000000000,-00017000,00,,,,,,,,,,,,,2026-01-12 11:27:25,00.05,104,-00.03,00.01,00.03,22.82,35.53,1005.59,-180.0,-178.2,207,2026-01-12 11:27:25,627.2004,1863.00,1453.56,17.82,2048,success,2026-01-12 11:27:25,1185.0,0.0,304.0,0.68,0.75,2.388,1.376,22.3,37.0,0.0,359.0,4.2,0.5,15.2,33.5,6899.0,4714.0,1007.0
2026-01-12 11:27:26,2026-01-12 11:27:26,1006.45,+2163,3.09,+2260,2015/10/18,00:21:21,+0000000000,+0000000000,-00017000,00,2026-01-12 11:27:25,15.3,307.9,739.6,1.5010,12.2,0000.00000,00000.00000,0.0,0,12/01/26,11:33:22,2026-01-12 11:27:26,00.04,068,-00.01,-00.01,00.03,22.85,35.49,1005.60,-180.0,-178.2,207,2026-01-12 11:27:25,627.2004,1861.00,1453.30,17.62,2048,success,2026-01-12 11:27:26,1186.0,1.99,3383.0,1.18,-0.19,2.412,1.281,22.3,37.0,0.0,359.0,4.2,0.5,15.4,33.5,6899.0,4699.0,1007.0
2026-01-12 11:27:27,2026-01-12 11:27:27,1006.41,+2161,3.09,+2260,2015/10/18,00:21:22,+0000000000,+0000000000,-00017000,00,,,,,,,,,,,,,2026-01-12 11:27:27,00.05,104,-00.03,00.01,00.04,22.83,35.52,1005.61,-180.0,-178.2,208,2026-01-12 11:27:27,627.2004,1866.00,1453.18,17.73,2048,success,2026-01-12 11:27:27,1187.0,0.0,305.0,0.37,0.56,2.42,1.213,22.3,37.0,0.0,359.0,4.2,0.5,15.4,33.5,6899.0,4706.0,1007.0
2026-01-12 11:27:28,2026-01-12 11:27:28,1006.39,+2164,3.09,+2260,2015/10/18,00:21:23,+0000000000,+0000000000,-00017000,00,,,,,,,,,,,,,2026-01-12 11:27:28,00.05,139,-00.01,00.01,00.05,22.81,35.52,1005.61,-179.9,-178.2,208,2026-01-12 11:27:28,627.2004,1867.00,1452.67,17.74,2048,success,2026-01-12 11:27:28,1188.0,1.98,3381.0,1.0,0.0,2.426,1.195,22.3,37.0,0.0,366.0,4.2,0.5,15.5,33.5,6899.0,4706.0,1007.0
2026-01-12 11:27:29,2026-01-12 11:27:29,1006.42,+2160,3.09,+2260,2015/10/18,00:21:24,+0000000000,+0000000000,-00017000,00,,,,,,,,,,,,,2026-01-12 11:27:29,00.05,113,-00.03,00.01,00.04,22.78,35.48,1005.61,-179.9,-178.2,209,2026-01-12 11:27:28,627.2004,1860.00,1452.89,17.42,2048,success,2026-01-12 11:27:29,1189.0,0.0,302.0,-0.06,-0.12,2.456,1.044,22.3,37.0,0.0,720.0,4.2,0.5,15.7,32.8,7370.0,4703.0,1007.0
2026-01-12 11:27:30,2026-01-12 11:27:30,1006.39,+2161,3.09,+2260,2015/10/18,00:21:25,+0000000000,+0000000000,-00017000,00,,,,,,,,,,,,,2026-01-12 11:27:30,00.04,099,-00.02,00.00,00.04,22.82,35.53,1005.59,-180.0,-178.2,206,2026-01-12 11:27:30,627.2004,1833.00,1452.75,17.39,2048,success,2026-01-12 11:27:30,1190.0,1.99,3384.0,1.43,0.31,2.425,0.791,22.3,37.0,0.0,721.0,4.19,0.499,15.5,32.8,7370.0,4712.0,1007.0
2026-01-12 11:27:31,2026-01-12 11:27:31,1006.42,+2163,3.09,+2259,2015/10/18,00:21:26,+0000000000,+0000000000,-00017000,00,,,,,,,,,,,,,2026-01-12 11:27:31,00.04,105,-00.02,00.01,00.04,22.81,35.48,1005.61,-179.9,-178.2,208,2026-01-12 11:27:31,627.2004,1891.00,1452.83,17.75,2048,success,2026-01-12 11:27:31,1191.0,0.0,302.0,0.56,0.75,2.431,0.703,22.3,37.0,0.0,719.0,4.2,0.5,15.5,32.8,7370.0,4706.0,1007.0
2026-01-12 11:27:32,2026-01-12 11:27:32,1006.4,+2161,3.09,+2260,2015/10/18,00:21:27,+0000000000,+0000000000,-00017000,00,,,,,,,,,,,,,2026-01-12 11:27:32,00.05,086,-00.02,-00.00,00.04,22.82,35.49,1005.60,-179.9,-178.2,208,2026-01-12 11:27:31,627.2004,1873.00,1453.17,17.73,2048,success,2026-01-12 11:27:32,1192.0,1.99,3383.0,1.18,0.62,2.429,0.566,22.3,37.0,0.0,720.0,4.18,0.5,15.5,32.8,7370.0,4706.0,1007.0
2026-01-12 11:27:33,2026-01-12 11:27:33,1006.48,+2162,3.09,+2259,2015/10/18,00:21:28,+0000000000,+0000000000,-00017000,00,,,,,,,,,,,,,2026-01-12 11:27:33,00.05,116,-00.03,00.01,00.04,22.80,35.49,1005.63,-179.9,-178.2,209,2026-01-12 11:27:33,627.2004,1865.00,1453.12,18.62,2048,success,2026-01-12 11:27:33,1193.0,0.0,297.0,0.31,0.5,2.373,0.526,22.3,37.0,0.0,720.0,4.2,0.5,15.1,32.8,7370.0,4705.0,1007.0
2026-01-12 11:27:34,2026-01-12 11:27:34,1006.45,+2164,3.09,+2259,2015/10/18,00:21:29,+0000000000,+0000000000,-00017000,00,,,,,,,,,,,,,2026-01-12 11:27:34,00.03,118,-00.02,00.01,00.02,22.82,35.50,1005.65,-179.9,-178.1,211,2026-01-12 11:27:34,627.2004,1877.00,1452.69,18.83,2048,success,2026-01-12 11:27:34,1194.0,1.99,3381.0,1.25,0.44,2.414,0.579,22.3,37.0,0.0,720.0,4.2,0.5,15.4,32.8,7370.0,4705.0,1007.0
2026-01-12 11:27:35,2026-01-12 11:27:35,1006.45,+2161,3.09,+2260,2015/10/18,00:21:30,+0000000000,+0000000000,-00017000,00,,,,,,,,,,,,,2026-01-12 11:27:35,00.05,126,-00.03,00.02,00.03,22.81,35.49,1005.60,-179.9,-178.2,208,2026-01-12 11:27:35,627.2004,1858.00,1452.77,18.67,2048,success,2026-01-12 11:27:35,1195.0,0.0,301.0,0.31,0.81,2.401,0.33,22.3,37.0,0.0,1200.0,4.2,0.5,15.3,31.9,7389.0,4705.0,1007.0
2026-01-12 11:27:36,2026-01-12 11:27:36,1006.44,+2163,3.09,+2259,2015/10/18,00:21:31,+0000000000,+0000000000,-00017000,00,2026-01-12 11:27:35,14.6,307.9,739.5,1.5016,12.2,0000.00000,00000.00000,0.0,0,12/01/26,11:33:32,2026-01-12 11:27:36,00.04,114,-00.03,00.01,00.03,22.81,35.45,1005.68,-180.0,-178.2,207,2026-01-12 11:27:36,627.2004,1831.00,1453.38,18.10,2048,success,2026-01-12 11:27:36,1196.0,2.01,3381.0,0.87,0.31,2.388,0.245,22.3,37.0,0.0,1201.0,4.2,0.499,15.2,31.9,7389.0,4681.0,1007.0
2026-01-12 11:27:37,2026-01-12 11:27:37,1006.46,+2161,3.08,+2260,2015/10/18,00:21:32,+0000000000,+0000000000,-00017000,00,,,,,,,,,,,,,2026-01-12 11:27:37,00.04,114,-00.02,00.01,00.03,22.83,35.46,1005.64,-180.0,-178.2,207,2026-01-12 11:27:36,627.2004,1861.00,1453.54,18.44,2048,success,2026-01-12 11:27:37,1197.0,0.0,300.0,0.37,0.25,2.425,0.128,22.3,37.0,0.0,1201.0,4.2,0.5,15.5,31.9,7389.0,4703.0,1007.0
2026-01-12 11:27:38,2026-01-12 11:27:38,1006.37,+2160,3.07,+2260,2015/10/18,00:21:33,+0000000000,+0000000000,-00017000,00,,,,,,,,,,,,,2026-01-12 11:27:38,00.05,114,-00.04,00.02,00.03,22.82,35.51,1005.65,-179.9,-178.2,207,2026-01-12 11:27:38,627.2004,1862.00,1453.13,18.64,2048,success,2026-01-12 11:27:38,1198.0,1.99,3380.0,1.43,0.37,2.464,0.055,22.3,37.0,0.0,1200.0,4.2,0.5,15.7,31.9,7389.0,4699.0,1007.0
2026-01-12 11:27:39,2026-01-12 11:27:39,1006.44,+2158,3.07,+2259,2015/10/18,00:21:34,+0000000000,+0000000000,-00017000,00,,,,,,,,,,,,,2026-01-12 11:27:39,00.04,090,-00.02,00.00,00.03,22.85,35.48,1005.63,-179.9,-178.2,209,2026-01-12 11:27:39,627.2004,1855.00,1453.41,18.39,2048,success,2026-01-12 11:27:39,1199.0,0.0,304.0,0.12,0.62,2.473,0.092,22.3,37.0,0.0,1201.0,4.19,0.5,15.8,31.9,7389.0,4707.0,1007.0
2026-01-12 11:27:40,2026-01-12 11:27:40,1006.44,+2160,3.08,+2259,2015/10/18,00:21:35,+0000000000,+0000000000,-00017000,00,,,,,,,,,,,,,2026-01-12 11:27:40,00.04,095,-00.03,00.00,00.03,22.87,35.50,1005.62,-179.9,-178.2,208,2026-01-12 11:27:40,627.2004,1876.00,1453.08,18.75,2048,success,2026-01-12 11:27:40,1200.0,2.01,3379.0,1.62,0.56,2.488,0.075,22.3,37.0,0.0,1197.0,4.19,0.5,15.9,31.9,7389.0,4704.0,1007.0
2026-01-12 11:27:41,2026-01-12 11:27:41,1006.38,+2164,3.08,+2259,2015/10/18,00:21:36,+0000000000,+0000000000,-00017000,00,,,,,,,,,,,,,2026-01-12 11:27:41,00.05,089,-00.04,-00.00,00.04,22.85,35.49,1005.62,-179.9,-178.2,207,2026-01-12 11:27:41,627.2004,1873.00,1453.69,18.58,2048,success,2026-01-12 11:27:41,1201.0,0.0,302.0,0.37,1.68,2.463,0.406,22.3,37.0,0.0,89.0,4.2,0.499,15.7,32.6,7401.0,4678.0,1007.0
2026-01-12 11:27:42,2026-01-12 11:27:42,1006.46,+2164,3.09,+2260,2015/10/18,00:21:37,+0000000000,+0000000000,-00017000,00,,,,,,,,,,,,,2026-01-12 11:27:42,00.05,112,-00.03,00.01,00.04,22.86,35.47,1005.66,-179.9,-178.2,209,2026-01-12 11:27:42,627.2004,1856.00,1453.46,18.44,2048,success,2026-01-12 11:27:42,1202.0,1.98,3383.0,1.81,-0.31,2.433,0.709,22.3,37.0,0.0,99.0,4.2,0.5,15.5,32.6,7401.0,4698.0,1007.0
2026-01-12 11:27:43,2026-01-12 11:27:43,1006.45,+2163,3.09,+2259,2015/10/18,00:21:38,+0000000000,+0000000000,-00017000,00,,,,,,,,,,,,,2026-01-12 11:27:43,00.04,088,-00.03,-00.00,00.03,22.86,35.49,1005.61,-180.0,-178.2,211,2026-01-12 11:27:43,627.2004,1878.00,1453.27,18.80,2048,success,2026-01-12 11:27:43,1203.0,0.0,301.0,0.25,1.49,2.421,1.255,22.3,37.0,0.0,99.0,4.19,0.5,15.5,32.6,7401.0,4698.0,1007.0
2026-01-12 11:27:44,2026-01-12 11:27:44,1006.46,+2161,3.1,+2259,2015/10/18,00:21:39,+0000000000,+0000000000,-00017000,00,,,,,,,,,,,,,2026-01-12 11:27:44,00.05,065,-00.03,-00.01,00.04,22.83,35.51,1005.63,-179.9,-178.2,207,2026-01-12 11:27:44,627.2004,1872.00,1453.76,18.73,2048,success,2026-01-12 11:27:44,1204.0,2.01,3381.0,1.25,-0.75,2.409,1.678,22.3,37.0,0.0,99.0,4.19,0.5,15.4,32.6,7401.0,4711.0,1007.0
2026-01-12 11:27:45,2026-01-12 11:27:45,1006.42,+2164,3.1,+2259,2015/10/18,00:21:40,+0000000000,+0000000000,-00017000,00,,,,,,,,,,,,,2026-01-12 11:27:45,00.06,089,-00.04,-00.00,00.04,22.80,35.48,1005.63,-179.9,-178.2,211,2026-01-12 11:27:45,627.2004,1854.00,1453.16,18.28,2048,success,2026-01-12 11:27:45,1205.0,0.0,302.0,0.06,1.25,2.397,1.801,22.3,36.0,0.0,98.0,4.2,0.5,15.3,32.6,7401.0,4699.0,1007.0
2026-01-12 11:27:46,2026-01-12 11:27:46,1006.4,+2164,3.1,+2259,2015/10/18,00:21:41,+0000000000,+0000000000,-00017000,00,2026-01-12 11:27:45,15.8,307.9,739.3,1.5023,12.2,0000.00000,00000.00000,0.0,0,12/01/26,11:33:42,2026-01-12 11:27:46,00.04,112,-00.01,00.00,00.04,22.79,35.49,1005.65,-179.9,-178.2,208,2026-01-12 11:27:46,627.2004,1849.00,1453.32,18.53,2048,success,2026-01-12 11:27:46,1206.0,2.0,3380.0,1.37,-0.75,2.409,1.9,22.3,36.0,0.0,98.0,4.2,0.5,15.4,32.6,7401.0,4700.0,1007.0
2026-01-12 11:27:47,2026-01-12 11:27:47,1006.49,+2164,3.1,+2259,2015/10/18,00:21:42,+0000000000,+0000000000,-00017000,00,,,,,,,,,,,,,2026-01-12 11:27:47,00.05,108,-00.03,00.01,00.04,22.78,35.47,1005.63,-179.9,-178.1,209,2026-01-12 11:27:47,627.2004,1857.00,1453.37,18.32,2048,success,2026-01-12 11:27:47,1207.0,0.0,304.0,0.62,0.44,2.431,1.675,22.3,36.0,0.0,359.0,4.2,0.5,15.5,30.3,7646.0,4705.0,1007.0
2026-01-12 11:27:48,2026-01-12 11:27:48,1006.45,+2166,3.1,+2259,2015/10/18,00:21:43,+0000000000,+0000000000,-00017000,00,,,,,,,,,,,,,2026-01-12 11:27:48,00.06,139,-00.02,00.02,00.05,22.80,35.49,1005.60,-180.0,-178.2,209,2026-01-12 11:27:48,627.2004,1843.00,1453.27,18.34,2048,success,2026-01-12 11:27:48,1208.0,1.99,3381.0,1.12,-0.31,2.418,1.541,22.3,36.0,0.0,359.0,4.2,0.5,15.4,30.3,7646.0,4707.0,1007.0
2026-01-12 11:27:49,2026-01-12 11:27:49,1006.43,+2165,3.1,+2260,2015/10/18,00:21:44,+0000000000,+0000000000,-00017000,00,,,,,,,,,,,,,2026-01-12 11:27:49,00.04,114,-00.01,00.01,00.03,22.84,35.47,1005.65,-179.9,-178.2,208,2026-01-12 11:27:49,627.2004,1874.00,1453.92,18.65,2048,success,2026-01-12 11:27:49,1209.0,0.0,302.0,0.06,0.81,2.395,1.315,22.3,36.0,0.0,359.0,4.2,0.5,15.3,30.3,7646.0,4713.0,1007.0
2026-01-12 11:27:50,2026-01-12 11:27:50,1006.42,+2164,3.1,+2259,2015/10/18,00:21:45,+0000000000,+0000000000,-00017000,00,,,,,,,,,,,,,2026-01-12 11:27:50,00.07,113,-00.05,00.02,00.05,22.81,35.49,1005.62,-180.0,-178.2,207,2026-01-12 11:27:50,627.2004,1866.00,1453.78,18.51,2048,success,2026-01-12 11:27:50,1210.0,1.98,3380.0,1.18,0.31,2.342,1.189,22.3,36.0,0.0,359.0,4.2,0.5,14.9,30.3,7646.0,4702.0,1007.0
2026-01-12 11:27:51,2026-01-12 11:27:51,1006.47,+2162,3.11,+2259,2015/10/18,00:21:46,+0000000000,+0000000000,-00017000,00,,,,,,,,,,,,,2026-01-12 11:27:51,00.06,147,-00.02,00.03,00.04,22.85,35.48,1005.63,-180.0,-178.2,210,2026-01-12 11:27:51,627.2004,1890.00,1453.41,18.84,2048,success,2026-01-12 11:27:51,1211.0,0.0,298.0,0.5,0.5,2.324,1.194,22.3,36.0,0.0,358.0,4.2,0.5,14.8,30.3,7646.0,4700.0,1007.0
2026-01-12 11:27:52,2026-01-12 11:27:52,1006.45,+2162,3.12,+2259,2015/10/18,00:21:47,+0000000000,+0000000000,-00017000,00,,,,,,,,,,,,,2026-01-12 11:27:52,00.05,100,-00.04,00.01,00.04,22.85,35.48,1005.60,-179.9,-178.2,209,2026-01-12 11:27:52,627.2004,1864.00,1453.01,18.48,2048,success,2026-01-12 11:27:52,1212.0,1.98,3381.0,1.18,-0.62,2.371,1.199,22.3,36.0,0.0,360.0,4.2,0.5,15.1,30.3,7646.0,4705.0,1007.0
2026-01-12 11:27:53,2026-01-12 11:27:53,1006.47,+2163,3.12,+2259,2015/10/18,00:21:48,+0000000000,+0000000000,-00017000,00,,,,,,,,,,,,,2026-01-12 11:27:53,00.06,118,-00.04,00.02,00.04,22.82,35.48,1005.64,-179.9,-178.1,209,2026-01-12 11:27:53,627.2004,1869.00,1453.76,18.57,2048,success,2026-01-12 11:27:53,1213.0,0.0,302.0,0.19,0.12,2.378,1.055,22.3,36.0,0.0,719.0,4.2,0.5,15.2,28.8,7977.0,4700.0,1007.0
2026-01-12 11:27:54,2026-01-12 11:27:54,1006.41,+2160,3.11,+2259,2015/10/18,00:21:49,+0000000000,+0000000000,-00017000,00,,,,,,,,,,,,,2026-01-12 11:27:54,00.04,104,-00.03,00.01,00.02,22.79,35.51,1005.61,-180.0,-178.2,209,2026-01-12 11:27:54,627.2004,1864.00,1454.61,19.08,2048,success,2026-01-12 11:27:54,1214.0,2.01,3380.0,1.18,0.31,2.408,0.862,22.3,37.0,0.0,721.0,4.2,0.499,15.4,28.8,7977.0,4695.0,1007.0
2026-01-12 11:27:55,2026-01-12 11:27:55,1006.44,+2160,3.1,+2260,2015/10/18,00:21:50,+0000000000,+0000000000,-00017000,00,2026-01-12 11:27:55,16.9,307.9,739.5,1.5028,12.2,0000.00000,00000.00000,0.0,0,12/01/26,11:33:52,2026-01-12 11:27:55,00.06,111,-00.04,00.01,00.04,22.80,35.49,1005.60,-180.0,-178.2,209,2026-01-12 11:27:55,627.2004,1892.00,1453.72,19.26,2048,success,2026-01-12 11:27:55,1215.0,0.0,304.0,0.31,-0.06,2.391,0.647,22.3,37.0,0.0,719.0,4.2,0.5,15.3,28.8,7977.0,4703.0,1007.0
2026-01-12 11:27:56,2026-01-12 11:27:56,1006.47,+2160,3.1,+2259,2015/10/18,00:21:51,+0000000000,+0000000000,-00017000,00,,,,,,,,,,,,,2026-01-12 11:27:56,00.05,094,-00.03,00.00,00.04,22.80,35.53,1005.59,-180.0,-178.2,209,2026-01-12 11:27:56,627.2004,1876.00,1453.79,19.25,2048,success,2026-01-12 11:27:56,1216.0,2.0,3379.0,1.43,0.37,2.353,0.47,22.3,37.0,0.0,720.0,4.19,0.5,15.0,28.8,7977.0,4703.0,1007.0
2026-01-12 11:27:57,2026-01-12 11:27:57,1006.4,+2158,3.09,+2259,2015/10/18,00:21:52,+0000000000,+0000000000,-00017000,00,,,,,,,,,,,,,2026-01-12 11:27:57,00.04,091,-00.02,00.00,00.04,22.82,35.49,1005.59,-180.0,-178.2,208,2026-01-12 11:27:57,627.2004,1862.00,1454.49,19.13,2048,success,2026-01-12 11:27:57,1217.0,0.0,302.0,0.81,0.5,2.422,0.496,22.3,36.0,0.0,720.0,4.2,0.5,15.5,28.8,7977.0,4702.0,1007.0
2026-01-12 11:27:58,2026-01-12 11:27:58,1006.36,+2150,3.08,+2259,2015/10/18,00:21:53,+0000000000,+0000000000,-00017000,00,,,,,,,,,,,,,2026-01-12 11:27:58,00.05,087,-00.03,-00.00,00.03,22.82,35.44,1005.63,-180.0,-178.2,208,2026-01-12 11:27:58,627.2004,1869.00,1454.51,19.26,2048,success,2026-01-12 11:27:58,1218.0,2.01,3381.0,1.0,0.12,2.445,0.483,22.3,36.0,0.0,721.0,4.19,0.5,15.6,28.8,7977.0,4701.0,1007.0
2026-01-12 11:27:59,2026-01-12 11:27:59,1006.43,+2157,3.07,+2259,2015/10/18,00:21:54,+0000000000,+0000000000,-00017000,00,,,,,,,,,,,,,2026-01-12 11:27:59,00.04,101,-00.01,00.00,00.04,22.83,35.48,1005.62,-180.0,-178.2,210,2026-01-12 11:27:59,627.2004,1851.00,1454.11,19.08,2048,success,2026-01-12 11:27:59,1219.0,0.0,305.0,0.56,0.37,2.471,0.365,22.3,36.0,0.0,1200.0,4.2,0.499,15.8,30.3,7920.0,4691.0,1007.0
2026-01-12 11:28:00,2026-01-12 11:28:00,1006.47,+2164,3.07,+2259,2015/10/18,00:21:55,+0000000000,+0000000000,-00017000,00,,,,,,,,,,,,,2026-01-12 11:28:00,00.05,133,-00.02,00.02,00.04,22.79,35.46,1005.63,-179.9,-178.2,207,2026-01-12 11:28:00,627.2004,1873.00,1454.73,19.12,2048,success,2026-01-12 11:28:00,1220.0,1.99,3381.0,1.43,-0.12,2.474,0.264,22.4,37.0,0.0,1201.0,4.2,0.5,15.8,30.3,7920.0,4705.0,1007.0
2026-01-12 11:28:01,2026-01-12 11:28:01,1006.4,+2162,3.08,+2258,2015/10/18,00:21:56,+0000000000,+0000000000,-00017000,00,,,,,,,,,,,,,2026-01-12 11:28:01,00.04,079,-00.03,-00.01,00.03,22.76,35.48,1005.62,-179.9,-178.2,211,2026-01-12 11:28:01,627.2004,1847.00,1453.99,19.28,2048,success,2026-01-12 11:28:01,1221.0,0.0,302.0,0.44,0.44,2.413,0.106,22.4,37.0,0.0,1200.0,4.2,0.5,15.4,30.3,7920.0,4699.0,1007.0
2026-01-12 11:28:02,2026-01-12 11:28:02,1006.42,+2164,3.08,+2259,2015/10/18,00:21:57,+0000000000,+0000000000,-00017000,00,,,,,,,,,,,,,2026-01-12 11:28:02,00.04,107,-00.02,00.01,00.03,22.77,35.45,1005.59,-179.9,-178.2,210,2026-01-12 11:28:02,627.2004,1884.00,1454.44,19.27,2048,success,2026-01-12 11:28:02,1222.0,2.0,3384.0,1.43,0.62,2.46,0.016,22.4,37.0,0.0,1200.0,4.2,0.5,15.7,30.3,7920.0,4712.0,1007.0
2026-01-12 11:28:03,2026-01-12 11:28:03,1006.45,+2169,3.08,+2259,2015/10/18,00:21:58,+0000000000,+0000000000,-00017000,00,,,,,,,,,,,,,2026-01-12 11:28:03,00.04,073,-00.02,-00.01,00.03,22.77,35.45,1005.63,-179.9,-178.2,208,2026-01-12 11:28:03,627.2004,1874.00,1454.43,19.16,2048,success,2026-01-12 11:28:03,1223.0,0.0,300.0,0.37,0.25,2.454,0.078,22.4,36.0,0.0,1200.0,4.2,0.5,15.7,30.3,7920.0,4704.0,1007.0
2026-01-12 11:28:04,2026-01-12 11:28:04,1006.38,+2164,3.09,+2259,2015/10/18,00:21:59,+0000000000,+0000000000,-00017000,00,,,,,,,,,,,,,2026-01-12 11:28:04,00.05,084,-00.03,-00.00,00.04,22.75,35.48,1005.63,-179.9,-178.1,208,2026-01-12 11:28:04,627.2004,1858.00,1454.42,19.10,2048,success,2026-01-12 11:28:04,1224.0,2.0,3377.0,1.37,0.12,2.448,0.076,22.4,36.0,0.0,1198.0,4.19,0.499,15.6,30.3,7920.0,4684.0,1007.0
2026-01-12 11:28:05,2026-01-12 11:28:05,1006.43,+2161,3.1,+2259,2015/10/18,00:22:00,+0000000000,+0000000000,-00017000,00,2026-01-12 11:28:05,17.2,308.0,739.7,1.5034,12.2,0000.00000,00000.00000,0.0,0,12/01/26,11:34:02,2026-01-12 11:28:05,00.05,073,-00.03,-00.01,00.04,22.77,35.40,1005.64,-180.0,-178.2,211,2026-01-12 11:28:05,627.2004,1875.00,1455.04,19.23,2048,success,2026-01-12 11:28:05,1225.0,0.0,298.0,0.44,1.18,2.474,0.338,22.4,36.0,0.0,89.0,4.2,0.5,15.8,29.4,8145.0,4697.0,1007.0
2026-01-12 11:28:06,2026-01-12 11:28:06,1006.39,+2160,3.1,+2258,2015/10/18,00:22:01,+0000000000,+0000000000,-00017000,00,,,,,,,,,,,,,2026-01-12 11:28:06,00.06,071,-00.05,-00.02,00.03,22.84,35.44,1005.65,-179.9,-178.2,208,2026-01-12 11:28:06,627.2004,1859.00,1455.11,18.82,2048,success,2026-01-12 11:28:06,1226.0,1.98,3383.0,1.49,-0.19,2.378,0.68,22.4,36.0,0.0,100.0,4.19,0.5,15.2,29.4,8145.0,4706.0,1007.0
2026-01-12 11:28:07,2026-01-12 11:28:07,1006.41,+2165,3.1,+2259,2015/10/18,00:22:02,+0000000000,+0000000000,-00017000,00,,,,,,,,,,,,,2026-01-12 11:28:07,00.06,067,-00.05,-00.02,00.04,22.89,35.40,1005.64,-179.9,-178.2,209,2026-01-12 11:28:07,627.2004,1860.00,1454.23,19.12,2048,success,2026-01-12 11:28:07,1227.0,0.0,304.0,0.31,1.18,2.343,1.158,22.4,36.0,0.0,98.0,4.19,0.5,14.9,29.4,8145.0,4727.0,1007.0
2026-01-12 11:28:08,2026-01-12 11:28:08,1006.39,+2157,3.11,+2259,2015/10/18,00:22:03,+0000000000,+0000000000,-00017000,00,,,,,,,,,,,,,2026-01-12 11:28:08,00.05,083,-00.04,-00.01,00.03,22.95,35.46,1005.61,-180.0,-178.2,206,2026-01-12 11:28:08,627.2004,1861.00,1455.27,18.93,2048,success,2026-01-12 11:28:08,1228.0,1.99,3383.0,1.62,-0.75,2.298,1.58,22.4,36.0,0.0,98.0,4.2,0.5,14.7,29.4,8145.0,4700.0,1007.0
2026-01-12 11:28:09,2026-01-12 11:28:09,1006.43,+2164,3.11,+2259,2015/10/18,00:22:04,+0000000000,+0000000000,-00017000,00,,,,,,,,,,,,,2026-01-12 11:28:09,00.04,106,-00.03,00.01,00.03,23.08,35.43,1005.61,-179.9,-178.2,209,2026-01-12 11:28:09,627.2004,1877.00,1454.77,19.05,2048,success,2026-01-12 11:28:09,1229.0,0.0,302.0,0.56,1.06,2.24,1.771,22.4,36.0,0.0,99.0,4.2,0.5,14.3,29.4,8145.0,4701.0,1007.0
2026-01-12 11:28:10,2026-01-12 11:28:10,1006.41,+2161,3.12,+2258,2015/10/18,00:22:05,+0000000000,+0000000000,-00017000,00,,,,,,,,,,,,,2026-01-12 11:28:10,00.05,054,-00.02,-00.02,00.04,23.03,35.37,1005.58,-180.0,-178.2,209,2026-01-12 11:28:10,627.2004,1876.00,1455.11,19.17,2048,success,2026-01-12 11:28:10,1230.0,1.98,3383.0,1.18,-0.25,2.258,1.851,22.4,36.0,0.0,99.0,4.2,0.5,14.4,29.4,8145.0,4701.0,1007.0
2026-01-12 11:28:11,2026-01-12 11:28:11,1006.41,+2162,3.12,+2259,2015/10/18,00:22:06,+0000000000,+0000000000,-00017000,00,,,,,,,,,,,,,2026-01-12 11:28:11,00.06,048,-00.04,-00.03,00.03,22.94,35.34,1005.57,-179.9,-178.2,208,2026-01-12 11:28:11,627.2004,1864.00,1454.94,19.31,2048,success,2026-01-12 11:28:11,1231.0,0.0,300.0,0.25,0.56,2.337,1.691,22.4,36.0,0.0,359.0,4.2,0.5,14.9,36.5,6596.0,4703.0,1007.0
2026-01-12 11:28:12,2026-01-12 11:28:12,1006.44,+2162,3.12,+2259,2015/10/18,00:22:07,+0000000000,+0000000000,-00017000,00,,,,,,,,,,,,,2026-01-12 11:28:12,00.05,060,-00.03,-00.02,00.03,22.91,35.33,1005.60,-179.9,-178.2,210,2026-01-12 11:28:12,627.2004,1853.00,1454.88,19.16,2048,success,2026-01-12 11:28:12,1232.0,1.99,3380.0,1.43,-0.06,2.414,1.575,22.4,36.0,0.0,359.0,4.2,0.499,15.4,36.5,6596.0,4733.0,1007.0
2026-01-12 11:28:13,2026-01-12 11:28:13,1006.41,+2161,3.12,+2258,2015/10/18,00:22:08,+0000000000,+0000000000,-00017000,00,,,,,,,,,,,,,2026-01-12 11:28:13,00.04,071,-00.02,-00.01,00.03,22.88,35.34,1005.60,-180.0,-178.2,207,2026-01-12 11:28:13,627.2004,1857.00,1454.91,18.94,2048,success,2026-01-12 11:28:13,1233.0,0.0,302.0,0.25,0.44,2.462,1.443,22.4,36.0,0.0,359.0,4.2,0.5,15.7,36.5,6596.0,4703.0,1007.0
2026-01-12 11:28:14,2026-01-12 11:28:14,1006.42,+2164,3.13,+2259,2015/10/18,00:22:09,+0000000000,+0000000000,-00017000,00,,,,,,,,,,,,,2026-01-12 11:28:14,00.05,048,-00.03,-00.03,00.03,22.87,35.33,1005.60,-180.0,-178.2,208,2026-01-12 11:28:14,627.2004,1874.00,1455.37,19.37,2048,success,2026-01-12 11:28:14,1234.0,1.99,3381.0,1.0,-0.12,2.488,1.305,22.4,36.0,0.0,359.0,4.2,0.5,15.9,36.5,6596.0,4697.0,1007.0
2026-01-12 11:28:15,2026-01-12 11:28:15,1006.42,+2164,3.13,+2259,2015/10/18,00:22:10,+0000000000,+0000000000,-00017000,00,2026-01-12 11:28:15,17.1,308.0,740.5,1.5040,12.2,0000.00000,00000.00000,0.0,0,12/01/26,11:34:12,2026-01-12 11:28:15,00.05,089,-00.02,-00.00,00.04,22.85,35.28,1005.60,-180.0,-178.1,208,2026-01-12 11:28:15,627.2004,1867.00,1454.31,19.36,2048,success,2026-01-12 11:28:15,1235.0,0.0,300.0,0.12,0.25,2.407,1.284,22.3,36.0,0.0,359.0,4.2,0.5,15.4,36.5,6596.0,4704.0,1007.0
2026-01-12 11:28:16,2026-01-12 11:28:16,1006.42,+2164,3.13,+2259,2015/10/18,00:22:11,+0000000000,+0000000000,-00017000,00,,,,,,,,,,,,,2026-01-12 11:28:16,00.05,114,-00.03,00.01,00.03,22.82,35.33,1005.58,-179.9,-178.2,209,2026-01-12 11:28:16,627.2004,1892.00,1455.42,19.15,2048,success,2026-01-12 11:28:16,1236.0,2.01,3380.0,1.31,0.25,2.378,1.225,22.3,36.0,0.0,360.0,4.2,0.5,15.2,36.5,6596.0,4703.0,1007.0
2026-01-12 11:28:17,2026-01-12 11:28:17,1006.4,+2164,3.13,+2258,2015/10/18,00:22:12,+0000000000,+0000000000,-00017000,00,,,,,,,,,,,,,2026-01-12 11:28:17,00.04,083,-00.03,-00.00,00.03,22.79,35.31,1005.58,-180.0,-178.2,210,2026-01-12 11:28:17,627.2004,1871.00,1455.27,19.07,2048,success,2026-01-12 11:28:17,1237.0,0.0,302.0,0.44,0.44,2.352,1.018,22.3,36.0,0.0,721.0,4.2,0.499,15.0,38.0,6226.0,4692.0,1007.0
2026-01-12 11:28:18,2026-01-12 11:28:18,1006.39,+2160,3.14,+2258,2015/10/18,00:22:13,+0000000000,+0000000000,-00017000,00,,,,,,,,,,,,,2026-01-12 11:28:18,00.06,063,-00.03,-00.02,00.04,22.78,35.30,1005.58,-179.9,-178.2,208,2026-01-12 11:28:18,627.2004,1860.00,1454.92,19.18,2048,success,2026-01-12 11:28:18,1238.0,1.99,3383.0,0.75,0.31,2.295,0.893,22.4,36.0,0.0,720.0,4.2,0.5,14.6,38.0,6226.0,4704.0,1007.0
2026-01-12 11:28:19,2026-01-12 11:28:19,1006.42,+2164,3.14,+2259,2015/10/18,00:22:14,+0000000000,+0000000000,-00017000,00,,,,,,,,,,,,,2026-01-12 11:28:19,00.04,145,-00.02,00.02,00.03,22.82,35.30,1005.60,-180.0,-178.1,209,2026-01-12 11:28:19,627.2004,1876.00,1454.47,19.17,2048,success,2026-01-12 11:28:19,1239.0,0.0,297.0,0.06,0.5,2.301,0.716,22.4,36.0,0.0,721.0,4.18,0.5,14.7,38.0,6226.0,4705.0,1007.0
2026-01-12 11:28:20,2026-01-12 11:28:20,1006.38,+2164,3.14,+2259,2015/10/18,00:22:15,+0000000000,+0000000000,-00017000,00,,,,,,,,,,,,,2026-01-12 11:28:20,00.05,095,-00.04,00.00,00.03,22.80,35.26,1005.58,-180.0,-178.1,209,2026-01-12 11:28:20,627.2004,1842.00,1455.15,18.97,2048,success,2026-01-12 11:28:20,1240.0,1.98,3380.0,1.62,0.44,2.259,0.51,22.4,36.0,0.0,720.0,4.19,0.5,14.4,38.0,6226.0,4707.0,1007.0
2026-01-12 11:28:21,2026-01-12 11:28:21,1006.37,+2160,3.15,+2259,2015/10/18,00:22:16,+0000000000,+0000000000,-00017000,00,,,,,,,,,,,,,2026-01-12 11:28:21,00.07,132,-00.04,00.04,00.03,22.78,35.28,1005.55,-179.9,-178.2,208,2026-01-12 11:28:21,627.2004,1863.00,1455.11,19.20,2048,success,,,,,,,,,,,,,,,,,,,
2026-01-12 11:28:22,2026-01-12 11:28:22,1006.39,+2161,3.15,+2259,2015/10/18,00:22:17,+0000000000,+0000000000,-00017000,00,,,,,,,,,,,,,2026-01-12 11:28:22,00.06,119,-00.04,00.02,00.04,22.78,35.33,1005.57,-180.0,-178.2,211,2026-01-12 11:28:22,627.2004,1836.00,1455.41,18.83,2048,success,2026-01-12 11:28:22,1242.0,1.99,3383.0,1.56,0.31,2.209,0.495,22.4,37.0,0.0,721.0,4.2,0.499,14.1,38.0,6226.0,4684.0,1007.0
2026-01-12 11:28:23,2026-01-12 11:28:23,1006.36,+2164,3.15,+2259,2015/10/18,00:22:18,+0000000000,+0000000000,-00017000,00,,,,,,,,,,,,,2026-01-12 11:28:23,00.06,121,-00.03,00.02,00.04,22.77,35.29,1005.58,-180.0,-178.2,210,2026-01-12 11:28:23,627.2004,1848.00,1455.34,19.30,2048,success,2026-01-12 11:28:23,1243.0,0.0,304.0,0.81,0.12,2.218,0.333,22.4,37.0,0.0,1201.0,4.2,0.5,14.1,36.7,6130.0,4705.0,1007.0
2026-01-12 11:28:24,2026-01-12 11:28:24,1006.35,+2165,3.15,+2259,2015/10/18,00:22:19,+0000000000,+0000000000,-00017000,00,,,,,,,,,,,,,2026-01-12 11:28:24,00.06,124,-00.04,00.02,00.04,22.79,35.30,1005.57,-180.0,-178.2,209,2026-01-12 11:28:24,627.2004,1885.00,1455.16,19.48,2048,success,2026-01-12 11:28:24,1244.0,1.99,3384.0,1.62,0.12,2.284,0.247,22.4,36.0,0.0,1200.0,4.19,0.5,14.6,36.7,6130.0,4702.0,1007.0
2026-01-12 11:28:25,2026-01-12 11:28:25,1006.41,+2165,3.16,+2259,2015/10/18,00:22:20,+0000000000,+0000000000,-00017000,00,2026-01-12 11:28:25,17.3,308.0,739.6,1.5045,12.2,0000.00000,00000.00000,0.0,0,12/01/26,11:34:22,2026-01-12 11:28:25,00.04,112,-00.03,00.01,00.03,22.82,35.31,1005.58,-179.9,-178.2,209,2026-01-12 11:28:25,627.2004,1861.00,1454.65,19.20,2048,success,2026-01-12 11:28:25,1245.0,0.0,301.0,0.44,0.19,2.352,0.112,22.4,36.0,0.0,1201.0,4.2,0.5,15.0,36.7,6130.0,4708.0,1007.0
2026-01-12 11:28:26,2026-01-12 11:28:26,1006.38,+2165,3.16,+2259,2015/10/18,00:22:21,+0000000000,+0000000000,-00017000,00,,,,,,,,,,,,,2026-01-12 11:28:26,00.05,118,-00.03,00.01,00.04,22.84,35.31,1005.63,-180.0,-178.2,211,2026-01-12 11:28:26,627.2004,1866.00,1455.50,19.19,2048,success,2026-01-12 11:28:26,1246.0,2.01,3381.0,1.62,0.5,2.393,0.009,22.4,36.0,0.0,1201.0,4.2,0.5,15.3,36.7,6130.0,4703.0,1007.0
2026-01-12 11:28:27,2026-01-12 11:28:27,1006.39,+2164,3.16,+2259,2015/10/18,00:22:22,+0000000000,+0000000000,-00017000,00,,,,,,,,,,,,,2026-01-12 11:28:27,00.05,092,-00.03,00.00,00.03,22.90,35.29,1005.59,-179.9,-178.2,208,2026-01-12 11:28:27,627.2004,1866.00,1455.23,19.17,2048,success,2026-01-12 11:28:27,1247.0,0.0,310.0,0.37,0.69,2.419,0.03,22.4,36.0,0.0,1201.0,4.2,0.499,15.4,36.7,6130.0,4670.0,1007.0
2026-01-12 11:28:28,2026-01-12 11:28:28,1006.38,+2165,3.16,+2259,2015/10/18,00:22:23,+0000000000,+0000000000,-00017000,00,,,,,,,,,,,,,2026-01-12 11:28:28,00.06,105,-00.05,00.01,00.03,22.90,35.31,1005.59,-180.0,-178.2,208,2026-01-12 11:28:28,627.2004,1856.00,1455.95,18.99,2048,success,2026-01-12 11:28:28,1248.0,1.98,3384.0,1.18,0.12,2.365,0.07,22.4,36.0,0.0,1200.0,4.2,0.5,15.1,36.7,6130.0,4703.0,1007.0
2026-01-12 11:28:29,2026-01-12 11:28:29,1006.33,+2167,3.16,+2259,2015/10/18,00:22:24,+0000000000,+0000000000,-00017000,00,,,,,,,,,,,,,2026-01-12 11:28:29,00.06,116,-00.04,00.02,00.03,22.90,35.33,1005.60,-179.9,-178.2,210,2026-01-12 11:28:29,627.2004,1849.00,1455.96,19.02,2048,success,2026-01-12 11:28:29,1249.0,0.0,302.0,0.69,1.31,2.341,0.388,22.4,36.0,0.0,90.0,4.2,0.5,14.9,36.2,6495.0,4705.0,1007.0
2026-01-12 11:28:30,2026-01-12 11:28:30,1006.33,+2163,3.17,+2259,2015/10/18,00:22:25,+0000000000,+0000000000,-00017000,00,,,,,,,,,,,,,2026-01-12 11:28:30,00.06,096,-00.04,00.00,00.05,22.87,35.32,1005.56,-180.0,-178.2,209,2026-01-12 11:28:30,627.2004,1852.00,1455.39,19.10,2048,success,2026-01-12 11:28:30,1250.0,1.99,3383.0,1.37,-0.56,2.344,0.762,22.5,36.0,0.0,99.0,4.2,0.5,15.0,36.2,6495.0,4712.0,1007.0
2026-01-12 11:28:31,2026-01-12 11:28:31,1006.4,+2167,3.17,+2259,2015/10/18,00:22:26,+0000000000,+0000000000,-00017000,00,,,,,,,,,,,,,2026-01-12 11:28:31,00.05,079,-00.03,-00.01,00.04,22.83,35.28,1005.61,-179.9,-178.2,210,2026-01-12 11:28:31,627.2004,1870.00,1454.94,19.02,2048,success,2026-01-12 11:28:31,1251.0,0.0,301.0,0.5,1.87,2.282,1.247,22.5,36.0,0.0,100.0,4.2,0.5,14.6,36.2,6495.0,4702.0,1007.0
2026-01-12 11:28:32,2026-01-12 11:28:32,1006.39,+2163,3.17,+2260,2015/10/18,00:22:27,+0000000000,+0000000000,-00017000,00,,,,,,,,,,,,,2026-01-12 11:28:32,00.06,089,-00.04,-00.00,00.04,22.84,35.28,1005.59,-179.9,-178.2,212,2026-01-12 11:28:32,627.2004,1873.00,1455.18,19.30,2048,success,2026-01-12 11:28:32,1252.0,2.0,3383.0,1.43,-0.56,2.286,1.628,22.5,36.0,0.0,99.0,4.2,0.5,14.6,36.2,6495.0,4702.0,1007.0
2026-01-12 11:28:33,2026-01-12 11:28:33,1006.37,+2163,3.17,+2260,2015/10/18,00:22:28,+0000000000,+0000000000,-00017000,00,,,,,,,,,,,,,2026-01-12 11:28:33,00.05,098,-00.03,00.00,00.04,22.84,35.35,1005.57,-180.0,-178.2,210,2026-01-12 11:28:33,627.2004,1890.00,1455.15,19.36,2048,success,2026-01-12 11:28:33,1253.0,0.0,301.0,0.31,1.31,2.255,1.689,22.4,36.0,0.0,99.0,4.2,0.5,14.4,36.2,6495.0,4702.0,1007.0
2026-01-12 11:28:34,2026-01-12 11:28:34,1006.37,+2164,3.17,+2259,2015/10/18,00:22:29,+0000000000,+0000000000,-00017000,00,,,,,,,,,,,,,2026-01-12 11:28:34,00.07,098,-00.05,00.01,00.04,22.82,35.29,1005.57,-179.9,-178.2,206,2026-01-12 11:28:34,627.2004,1860.00,1455.42,18.87,2048,success,2026-01-12 11:28:34,1254.0,2.0,3383.0,0.93,-0.31,2.225,1.785,22.4,36.0,0.0,99.0,4.2,0.5,14.2,36.2,6495.0,4701.0,1007.0
2026-01-12 11:28:35,2026-01-12 11:28:35,1006.38,+2168,3.17,+2260,2015/10/18,00:22:30,+0000000000,+0000000000,-00017000,00,2026-01-12 11:28:35,16.4,308.0,740.0,1.5051,12.2,0000.00000,00000.00000,0.0,0,12/01/26,11:34:32,2026-01-12 11:28:35,00.07,121,-00.05,00.03,00.03,22.84,35.31,1005.62,-179.9,-178.2,210,2026-01-12 11:28:35,627.2004,1890.00,1455.98,19.70,2048,success,2026-01-12 11:28:35,1255.0,0.0,300.0,0.44,0.25,2.259,1.618,22.4,36.0,0.0,359.0,4.2,0.5,14.4,31.6,6940.0,4708.0,1007.0
2026-01-12 11:28:36,2026-01-12 11:28:36,1006.36,+2164,3.18,+2260,2015/10/18,00:22:31,+0000000000,+0000000000,-00017000,00,,,,,,,,,,,,,2026-01-12 11:28:36,00.05,096,-00.03,00.00,00.03,22.85,35.31,1005.61,-180.0,-178.2,211,2026-01-12 11:28:36,627.2004,1863.00,1455.43,19.25,2048,success,2026-01-12 11:28:36,1256.0,1.99,3383.0,1.62,-0.12,2.291,1.475,22.3,36.0,0.0,359.0,4.2,0.499,14.6,31.6,6940.0,4697.0,1007.0
2026-01-12 11:28:37,2026-01-12 11:28:37,1006.42,+2164,3.18,+2260,2015/10/18,00:22:32,+0000000000,+0000000000,-00017000,00,,,,,,,,,,,,,2026-01-12 11:28:37,00.05,101,-00.04,00.01,00.03,22.86,35.30,1005.60,-180.0,-178.2,208,2026-01-12 11:28:37,627.2004,1888.00,1455.49,19.40,2048,success,2026-01-12 11:28:37,1257.0,0.0,300.0,0.12,0.12,2.321,1.365,22.3,36.0,0.0,359.0,4.2,0.5,14.8,31.6,6940.0,4705.0,1007.0
2026-01-12 11:28:38,2026-01-12 11:28:38,1006.44,+2164,3.18,+2260,2015/10/18,00:22:33,+0000000000,+0000000000,-00017000,00,,,,,,,,,,,,,2026-01-12 11:28:38,00.04,121,-00.02,00.01,00.03,22.88,35.29,1005.62,-179.9,-178.1,211,2026-01-12 11:28:38,627.2004,1876.00,1456.27,19.05,2048,success,2026-01-12 11:28:38,1258.0,2.0,3383.0,1.37,0.06,2.354,1.229,22.3,36.0,0.0,359.0,4.2,0.5,15.0,31.6,6940.0,4704.0,1007.0
2026-01-12 11:28:39,2026-01-12 11:28:39,1006.39,+2160,3.18,+2260,2015/10/18,00:22:34,+0000000000,+0000000000,-00017000,00,,,,,,,,,,,,,2026-01-12 11:28:39,00.05,131,-00.03,00.02,00.04,22.86,35.30,1005.60,-179.9,-178.2,209,2026-01-12 11:28:39,627.2004,1863.00,1456.03,18.84,2048,success,2026-01-12 11:28:39,1259.0,0.0,301.0,0.81,0.62,2.295,1.213,22.3,37.0,0.0,359.0,4.19,0.5,14.6,31.6,6940.0,4706.0,1007.0
2026-01-12 11:28:40,2026-01-12 11:28:40,1006.41,+2167,3.18,+2260,2015/10/18,00:22:35,+0000000000,+0000000000,-00017000,00,,,,,,,,,,,,,2026-01-12 11:28:40,00.05,084,-00.03,-00.00,00.03,22.87,35.25,1005.62,-180.0,-178.2,210,2026-01-12 11:28:40,627.2004,1884.00,1456.52,19.50,2048,success,2026-01-12 11:28:40,1260.0,1.99,3380.0,1.06,-0.06,2.273,1.223,22.3,37.0,0.0,359.0,4.2,0.5,14.5,31.6,6940.0,4699.0,1007.0
2026-01-12 11:28:41,2026-01-12 11:28:41,1006.44,+2164,3.18,+2260,2015/10/18,00:22:36,+0000000000,+0000000000,-00017000,00,,,,,,,,,,,,,2026-01-12 11:28:41,00.05,133,-00.03,00.02,00.03,22.86,35.28,1005.59,-179.9,-178.2,208,2026-01-12 11:28:41,627.2004,1862.00,1456.46,19.41,2048,success,2026-01-12 11:28:41,1261.0,0.0,297.0,0.56,0.31,2.269,1.073,22.3,37.0,0.0,721.0,4.2,0.499,14.5,32.1,6775.0,4679.0,1007.0
2026-01-12 11:28:42,2026-01-12 11:28:42,1006.37,+2164,3.18,+2260,2015/10/18,00:22:37,+0000000000,+0000000000,-00017000,00,,,,,,,,,,,,,2026-01-12 11:28:42,00.04,090,-00.03,00.00,00.03,22.83,35.30,1005.59,-179.9,-178.2,207,2026-01-12 11:28:42,627.2004,1884.00,1455.87,19.47,2048,success,2026-01-12 11:28:42,1262.0,2.0,3381.0,1.43,0.56,2.262,0.916,22.4,37.0,0.0,721.0,4.2,0.5,14.4,32.1,6775.0,4698.0,1007.0
2026-01-12 11:28:43,2026-01-12 11:28:43,1006.36,+2163,3.18,+2260,2015/10/18,00:22:38,+0000000000,+0000000000,-00017000,00,,,,,,,,,,,,,2026-01-12 11:28:43,00.04,115,-00.03,00.01,00.03,22.84,35.31,1005.58,-180.0,-178.2,211,2026-01-12 11:28:43,627.2004,1863.00,1455.62,18.77,2048,success,2026-01-12 11:28:43,1263.0,0.0,304.0,0.0,0.31,2.3,0.738,22.4,37.0,0.0,721.0,4.2,0.5,14.7,32.1,6775.0,4703.0,1007.0
2026-01-12 11:28:44,2026-01-12 11:28:44,1006.35,+2160,3.17,+2259,2015/10/18,00:22:39,+0000000000,+0000000000,-00017000,00,,,,,,,,,,,,,2026-01-12 11:28:44,00.06,119,-00.04,00.02,00.05,22.85,35.30,1005.62,-180.0,-178.1,211,2026-01-12 11:28:44,627.2004,1877.00,1455.84,19.31,2048,success,2026-01-12 11:28:44,1264.0,2.0,3380.0,1.25,0.44,2.261,0.553,22.4,37.0,0.0,720.0,4.2,0.5,14.4,32.1,6775.0,4707.0,1007.0
2026-01-12 11:28:45,2026-01-12 11:28:45,1006.41,+2163,3.17,+2260,2015/10/18,00:22:40,+0000000000,+0000000000,-00017000,00,2026-01-12 11:28:45,13.6,308.0,739.2,1.5056,12.2,0000.00000,00000.00000,0.0,0,12/01/26,11:34:42,2026-01-12 11:28:45,00.04,089,-00.01,-00.00,00.04,22.84,35.26,1005.55,-179.9,-178.2,209,2026-01-12 11:28:45,627.2004,1862.00,1455.41,19.17,2048,success,2026-01-12 11:28:45,1265.0,0.0,298.0,0.37,0.44,2.274,0.512,22.4,36.0,0.0,720.0,4.2,0.5,14.5,32.1,6775.0,4703.0,1007.0
2026-01-12 11:28:46,2026-01-12 11:28:46,1006.42,+2164,3.17,+2260,2015/10/18,00:22:41,+0000000000,+0000000000,-00017000,00,,,,,,,,,,,,,2026-01-12 11:28:46,00.05,138,-00.01,00.02,00.05,22.83,35.22,1005.61,-179.9,-178.2,208,2026-01-12 11:28:46,627.2004,1860.00,1455.74,19.28,2048,success,2026-01-12 11:28:46,1266.0,2.0,3383.0,1.0,0.31,2.232,0.464,22.4,36.0,0.0,721.0,4.2,0.499,14.2,32.1,6775.0,4667.0,1007.0
2026-01-12 11:28:47,2026-01-12 11:28:47,1006.37,+2165,3.18,+2259,2015/10/18,00:22:42,+0000000000,+0000000000,-00017000,00,,,,,,,,,,,,,2026-01-12 11:28:47,00.03,059,-00.01,-00.00,00.03,22.80,35.25,1005.59,-179.9,-178.2,207,2026-01-12 11:28:47,627.2004,1867.00,1455.53,19.16,2048,success,2026-01-12 11:28:47,1267.0,0.0,301.0,0.44,0.44,2.243,0.306,22.4,36.0,0.0,1201.0,4.2,0.5,14.3,32.1,6774.0,4700.0,1007.0
2026-01-12 11:28:48,2026-01-12 11:28:48,1006.37,+2168,3.17,+2259,2015/10/18,00:22:43,+0000000000,+0000000000,-00017000,00,,,,,,,,,,,,,2026-01-12 11:28:48,00.04,132,-00.02,00.02,00.03,22.82,35.29,1005.57,-179.9,-178.2,208,2026-01-12 11:28:48,627.2004,1896.00,1456.08,19.39,2048,success,2026-01-12 11:28:48,1268.0,2.01,3379.0,1.25,0.19,2.261,0.178,22.4,36.0,0.0,1199.0,4.2,0.5,14.4,32.1,6774.0,4706.0,1007.0
2026-01-12 11:28:49,2026-01-12 11:28:49,1006.39,+2161,3.16,+2260,2015/10/18,00:22:44,+0000000000,+0000000000,-00017000,00,,,,,,,,,,,,,2026-01-12 11:28:49,00.06,132,-00.03,00.03,00.04,22.82,35.33,1005.58,-180.0,-178.2,209,2026-01-12 11:28:49,627.2004,1888.00,1455.66,19.17,2048,success,2026-01-12 11:28:49,1269.0,0.0,301.0,0.5,-0.25,2.259,0.09,22.4,36.0,0.0,1201.0,4.2,0.5,14.4,32.1,6774.0,4711.0,1007.0
2026-01-12 11:28:50,2026-01-12 11:28:50,1006.38,+2163,3.15,+2260,2015/10/18,00:22:45,+0000000000,+0000000000,-00017000,00,,,,,,,,,,,,,2026-01-12 11:28:50,00.05,069,-00.02,-00.01,00.04,22.82,35.24,1005.57,-179.9,-178.2,210,2026-01-12 11:28:50,627.2004,1854.00,1455.80,19.11,2048,success,2026-01-12 11:28:50,1270.0,2.01,3379.0,1.06,0.12,2.265,0.02,22.4,36.0,0.0,1200.0,4.2,0.5,14.4,32.1,6774.0,4701.0,1007.0
2026-01-12 11:28:51,2026-01-12 11:28:51,1006.32,+2164,3.15,+2260,2015/10/18,00:22:46,+0000000000,+0000000000,-00017000,00,,,,,,,,,,,,,2026-01-12 11:28:51,00.06,117,-00.04,00.02,00.05,22.82,35.25,1005.58,-179.9,-178.2,209,2026-01-12 11:28:51,627.2004,1867.00,1455.68,18.77,2048,success,2026-01-12 11:28:51,1271.0,0.0,302.0,0.56,0.25,2.253,0.104,22.4,37.0,0.0,1200.0,4.2,0.5,14.4,32.1,6774.0,4702.0,1007.0
2026-01-12 11:28:52,2026-01-12 11:28:52,1006.35,+2164,3.15,+2260,2015/10/18,00:22:47,+0000000000,+0000000000,-00017000,00,,,,,,,,,,,,,2026-01-12 11:28:52,00.07,132,-00.03,00.02,00.06,22.77,35.29,1005.60,-180.0,-178.2,208,2026-01-12 11:28:52,627.2004,1843.00,1456.24,18.50,2048,success,2026-01-12 11:28:52,1272.0,1.99,3384.0,1.74,0.44,2.208,0.095,22.4,37.0,0.0,1200.0,4.19,0.5,14.1,32.1,6774.0,4700.0,1007.0
2026-01-12 11:28:53,2026-01-12 11:28:53,1006.38,+2164,3.15,+2262,2015/10/18,00:22:48,+0000000000,+0000000000,-00017000,00,,,,,,,,,,,,,2026-01-12 11:28:53,00.03,161,-00.00,00.01,00.03,22.78,35.28,1005.56,-180.0,-178.2,209,2026-01-12 11:28:53,627.2004,1848.00,1456.13,18.46,2048,success,2026-01-12 11:28:53,1273.0,0.0,301.0,0.44,1.37,2.187,0.377,22.4,37.0,0.0,89.0,4.19,0.5,14.0,35.0,6155.0,4703.0,1007.0
2026-01-12 11:28:54,2026-01-12 11:28:54,1006.37,+2164,3.16,+2260,2015/10/18,00:22:49,+0000000000,+0000000000,-00017000,00,,,,,,,,,,,,,2026-01-12 11:28:54,00.04,135,-00.01,00.01,00.04,22.76,35.30,1005.59,-179.9,-178.2,210,2026-01-12 11:28:54,627.2004,1862.00,1455.90,18.48,2048,success,2026-01-12 11:28:54,1274.0,1.99,3383.0,1.18,-0.69,2.198,0.721,22.4,36.0,0.0,100.0,4.19,0.5,14.0,35.0,6155.0,4710.0,1007.0
2026-01-12 11:28:55,2026-01-12 11:28:55,1006.4,+2164,3.16,+2260,2015/10/18,00:22:50,+0000000000,+0000000000,-00017000,00,2026-01-12 11:28:55,13.6,308.0,740.2,1.5062,12.2,0000.00000,00000.00000,0.0,0,12/01/26,11:34:52,2026-01-12 11:28:55,00.04,142,-00.01,00.02,00.03,22.77,35.31,1005.57,-179.9,-178.2,207,2026-01-12 11:28:55,627.2004,1860.00,1456.23,18.44,2048,success,2026-01-12 11:28:55,1275.0,0.0,297.0,0.06,1.18,2.215,1.197,22.4,36.0,0.0,99.0,4.2,0.5,14.1,35.0,6155.0,4703.0,1007.0
2026-01-12 11:28:56,2026-01-12 11:28:56,1006.4,+2164,3.16,+2260,2015/10/18,00:22:51,+0000000000,+0000000000,-00017000,00,,,,,,,,,,,,,2026-01-12 11:28:56,00.04,146,-00.02,00.02,00.03,22.78,35.29,1005.57,-179.9,-178.2,206,2026-01-12 11:28:56,627.2004,1887.00,1456.42,18.85,2048,success,2026-01-12 11:28:56,1276.0,1.98,3383.0,1.56,-0.19,2.264,1.639,22.4,36.0,0.0,100.0,4.2,0.5,14.4,35.0,6155.0,4702.0,1007.0
2026-01-12 11:28:57,2026-01-12 11:28:57,1006.37,+2167,3.16,+2260,2015/10/18,00:22:52,+0000000000,+0000000000,-00017000,00,,,,,,,,,,,,,2026-01-12 11:28:57,00.04,158,-00.01,00.02,00.03,22.77,35.31,1005.60,-180.0,-178.2,210,2026-01-12 11:28:57,627.2004,1881.00,1456.75,18.85,2048,success,2026-01-12 11:28:57,1277.0,0.0,305.0,0.37,1.31,2.267,1.811,22.4,36.0,0.0,99.0,4.2,0.5,14.5,35.0,6155.0,4701.0,1007.0
2026-01-12 11:28:58,2026-01-12 11:28:58,1006.38,+2165,3.16,+2260,2015/10/18,00:22:53,+0000000000,+0000000000,-00017000,00,,,,,,,,,,,,,2026-01-12 11:28:58,00.06,145,-00.02,00.03,00.04,22.78,35.31,1005.60,-179.9,-178.2,211,2026-01-12 11:28:58,627.2004,1879.00,1456.72,19.01,2048,success,2026-01-12 11:28:58,1278.0,2.0,3380.0,1.37,-0.25,2.325,1.93,22.4,36.0,0.0,101.0,4.2,0.5,14.8,35.0,6155.0,4704.0,1007.0
2026-01-12 11:28:59,2026-01-12 11:28:59,1006.39,+2163,3.16,+2262,2015/10/18,00:22:54,+0000000000,+0000000000,-00017000,00,,,,,,,,,,,,,2026-01-12 11:28:59,00.04,141,-00.02,00.02,00.03,22.81,35.30,1005.61,-180.0,-178.2,208,2026-01-12 11:28:59,627.2004,1878.00,1455.85,18.83,2048,success,2026-01-12 11:28:59,1279.0,0.0,298.0,-0.06,0.5,2.321,1.673,22.4,36.0,0.0,359.0,4.19,0.499,14.8,46.2,5291.0,4696.0,1007.0
2026-01-12 11:29:00,2026-01-12 11:29:00,1006.39,+2165,3.16,+2260,2015/10/18,00:22:55,+0000000000,+0000000000,-00017000,00,,,,,,,,,,,,,2026-01-12 11:29:00,00.04,142,-00.02,00.02,00.03,22.83,35.29,1005.58,-180.0,-178.2,209,2026-01-12 11:29:00,627.2004,1862.00,1456.57,18.37,2048,success,2026-01-12 11:29:00,1280.0,2.01,3381.0,1.37,-0.06,2.287,1.526,22.4,36.0,0.0,358.0,4.2,0.5,14.6,46.2,5291.0,4701.0,1007.0
2026-01-12 11:29:01,2026-01-12 11:29:01,1006.41,+2165,3.17,+2260,2015/10/18,00:22:56,+0000000000,+0000000000,-00017000,00,,,,,,,,,,,,,2026-01-12 11:29:01,00.04,142,-00.01,00.02,00.03,22.83,35.32,1005.58,-180.0,-178.2,208,2026-01-12 11:29:01,627.2004,1865.00,1457.03,18.50,2048,success,2026-01-12 11:29:01,1281.0,0.0,300.0,0.75,0.69,2.341,1.334,22.4,36.0,0.0,359.0,4.19,0.5,14.9,46.2,5291.0,4700.0,1007.0
2026-01-12 11:29:02,2026-01-12 11:29:02,1006.39,+2164,3.17,+2260,2015/10/18,00:22:57,+0000000000,+0000000000,-00017000,00,,,,,,,,,,,,,2026-01-12 11:29:02,00.05,143,-00.01,00.02,00.05,22.85,35.30,1005.55,-180.0,-178.2,208,2026-01-12 11:29:02,627.2004,1850.00,1456.89,18.42,2048,success,2026-01-12 11:29:02,1282.0,2.0,3381.0,1.43,0.44,2.302,1.193,22.4,36.0,0.0,359.0,4.2,0.5,14.7,46.2,5291.0,4706.0,1007.0
2026-01-12 11:29:03,2026-01-12 11:29:03,1006.39,+2164,3.17,+2260,2015/10/18,00:22:58,+0000000000,+0000000000,-00017000,00,,,,,,,,,,,,,2026-01-12 11:29:03,00.04,109,-00.03,00.01,00.03,22.85,35.29,1005.60,-179.9,-178.1,208,2026-01-12 11:29:03,627.2004,1858.00,1457.41,19.00,2048,success,2026-01-12 11:29:03,1283.0,0.0,302.0,0.44,0.12,2.247,1.189,22.4,36.0,0.0,358.0,4.2,0.5,14.3,46.2,5291.0,4702.0,1007.0
2026-01-12 11:29:04,2026-01-12 11:29:04,1006.39,+2164,3.17,+2260,2015/10/18,00:22:59,+0000000000,+0000000000,-00017000,00,,,,,,,,,,,,,2026-01-12 11:29:04,00.05,143,-00.02,00.02,00.03,22.85,35.30,1005.58,-179.9,-178.2,207,2026-01-12 11:29:04,627.2004,1868.00,1457.05,18.74,2048,success,2026-01-12 11:29:04,1284.0,2.01,3381.0,1.18,-0.19,2.255,1.149,22.4,36.0,0.0,358.0,4.19,0.499,14.4,46.2,5291.0,4698.0,1007.0
