merge_timestamp,imet_Timestamp,imet_pressure,imet_temp,imet_rel_hum,imet_hum_temp,imet_date,imet_time,imet_longitude,imet_latitude,imet_altitude,imet_sat,pom_Timestamp,pom_Ozone_ppb,pom_Cell_Temperature_K,pom_Cell_Pressure_torr,pom_Photodiode_Voltage_V,pom_Power_Supply_V,pom_Latitude,pom_Longitude,pom_Altitude_m,pom_GPS_Quality,pom_Date,pom_Time,trisonica_Timestamp,trisonica_Wind_Speed,trisonica_Wind_Direction,trisonica_U_Vector,trisonica_V_Vector,trisonica_W_Vector,trisonica_Temperature,trisonica_Relative_Humidity,trisonica_Pressure,trisonica_Compass_Heading,trisonica_Pitch,trisonica_Roll,spectro_Timestamp,spectro_peak_wavelength,spectro_max_intensity,spectro_total_points,spectro_status,partector2pro_Timestamp,partector2pro_time_since_start_s,partector2pro_charger_diffusion_current_nA,partector2pro_charger_high_voltage_V,partector2pro_electrometer1_mV,partector2pro_electrometer2_mV,partector2pro_electrometer1_amplitude_mV,partector2pro_electrometer2_amplitude_mV,partector2pro_temperature_C,partector2pro_relative_humidity_percent,partector2pro_status,partector2pro_precipitator_voltage_V,partector2pro_battery_voltage_V,partector2pro_flow_lpm,partector2pro_LDSA_um2_cm3,partector2pro_diameter_nm,partector2pro_number_1_cm3,partector2pro_orifice_pressure_Pa,partector2pro_absolute_pressure_mbar
2026-01-07 13:44:22,2026-01-07 13:44:21,1012.86,+2304,3.73,+2426,2015/10/18,02:49:17,+0000000000,+0000000000,-00017000,00,,,,,,,,,,,,,2026-01-07 13:44:21,00.11,138,-00.07,00.08,-00.01,23.24,38.17,1012.14,-177.4,-179.2,355,,,,,,,,,,,,,,,,,,,,,,,,
2026-01-07 13:44:23,2026-01-07 13:44:22,1012.86,+2305,3.73,+2424,2015/10/18,02:49:18,+0000000000,+0000000000,-00017000,00,,,,,,,,,,,,,2026-01-07 13:44:22,00.12,066,-00.11,-00.05,00.03,23.39,38.17,1012.17,-177.5,-179.2,356,,,,,,2026-01-07 13:44:22,10496.0,1.99,3368.0,2.0,-1.19,5.903,4.76,26.0,38.0,0.0,360.0,4.2,0.5,37.7,56.9,10094.0,4700.0,1013.0
2026-01-07 13:44:24,2026-01-07 13:44:23,1012.92,+2313,3.73,+2426,2015/10/18,02:49:19,+0000000000,+0000000000,-00017000,00,,,,,,,,,,,,,2026-01-07 13:44:23,00.07,105,-00.07,00.02,00.00,23.23,38.17,1012.14,-177.5,-179.2,358,,,,,,2026-01-07 13:44:23,10497.0,0.0,300.0,-0.56,1.38,5.874,4.435,26.0,38.0,0.0,359.0,4.2,0.5,37.5,56.9,10094.0,4700.0,1013.0
2026-01-07 13:44:25,2026-01-07 13:44:24,1012.86,+2301,3.73,+2424,2015/10/18,02:49:20,+0000000000,+0000000000,-00017000,00,,,,,,,,,,,,,2026-01-07 13:44:24,00.07,117,-00.06,00.03,00.01,23.27,38.16,1012.15,-177.4,-179.2,354,,,,,,2026-01-07 13:44:24,10498.0,2.01,3367.0,1.75,-1.31,5.913,4.213,26.0,38.0,0.0,359.0,4.2,0.5,37.8,56.9,10094.0,4704.0,1013.0
2026-01-07 13:44:26,2026-01-07 13:44:25,1012.91,+2306,3.72,+2426,2015/10/18,02:49:21,+0000000000,+0000000000,-00017000,00,,,,,,,,,,,,,2026-01-07 13:44:25,00.08,129,-00.06,00.05,-00.00,23.23,38.19,1012.12,-177.5,-179.2,354,,,,,,2026-01-07 13:44:25,10499.0,0.0,297.0,-0.31,1.37,5.885,4.182,25.9,38.0,0.0,359.0,4.2,0.499,37.6,56.9,10094.0,4698.0,1013.0
2026-01-07 13:44:27,2026-01-07 13:44:26,1012.91,+2312,3.72,+2426,2015/10/18,02:49:22,+0000000000,+0000000000,-00017000,00,,,,,,,,,,,,,2026-01-07 13:44:26,00.03,155,-00.01,00.02,00.01,23.34,38.17,1012.14,-177.5,-179.2,357,,,,,,2026-01-07 13:44:26,10500.0,2.0,3367.0,2.19,-1.19,5.907,4.07,25.9,38.0,0.0,360.0,4.2,0.5,37.8,56.9,10094.0,4703.0,1013.0
2026-01-07 13:44:28,2026-01-07 13:44:27,1012.9,+2309,3.72,+2424,2015/10/18,02:49:23,+0000000000,+0000000000,-00017000,00,,,,,,,,,,,,,2026-01-07 13:44:27,00.06,152,-00.03,00.05,00.03,23.37,38.17,1012.17,-177.5,-179.2,356,,,,,,2026-01-07 13:44:27,10501.0,0.0,298.0,-0.5,0.12,5.956,3.562,25.9,38.0,0.0,721.0,4.2,0.5,38.1,68.1,9004.0,4703.0,1013.0
2026-01-07 13:44:29,2026-01-07 13:44:28,1012.87,+2308,3.72,+2426,2015/10/18,02:49:24,+0000000000,+0000000000,-00017000,00,2026-01-07 13:44:28,32.3,309.9,745.4,1.5005,12.2,0000.00000,00000.00000,0.0,0,07/01/26,13:49:58,2026-01-07 13:44:28,00.07,132,-00.06,00.05,00.00,23.19,38.20,1012.14,-177.5,-179.2,354,,,,,,2026-01-07 13:44:28,10502.0,2.01,3365.0,2.0,-0.13,5.99,3.038,26.0,38.0,0.0,719.0,4.2,0.5,38.3,68.1,9004.0,4706.0,1013.0
2026-01-07 13:44:30,2026-01-07 13:44:29,1012.89,+2307,3.72,+2426,2015/10/18,02:49:25,+0000000000,+0000000000,-00017000,00,,,,,,,,,,,,,2026-01-07 13:44:29,00.06,144,-00.03,00.04,00.03,23.23,38.17,1012.18,-177.5,-179.2,356,,,,,,2026-01-07 13:44:29,10503.0,0.0,300.0,-0.44,0.69,6.008,2.59,26.0,38.0,0.0,721.0,4.2,0.5,38.4,68.1,9004.0,4704.0,1013.0
2026-01-07 13:44:31,2026-01-07 13:44:30,1012.84,+2308,3.72,+2426,2015/10/18,02:49:26,+0000000000,+0000000000,-00017000,00,,,,,,,,,,,,,2026-01-07 13:44:31,00.02,020,-00.01,-00.02,-00.00,23.31,38.14,1012.17,-177.4,-179.2,354,,,,,,2026-01-07 13:44:30,10504.0,2.0,3368.0,1.75,-0.25,6.0,2.161,26.0,38.0,0.0,721.0,4.2,0.5,38.4,68.1,9004.0,4711.0,1013.0
2026-01-07 13:44:32,2026-01-07 13:44:31,1012.89,+2304,3.72,+2426,2015/10/18,02:49:27,+0000000000,+0000000000,-00017000,00,,,,,,,,,,,,,2026-01-07 13:44:32,00.09,037,-00.05,-00.07,00.03,23.46,38.13,1012.14,-177.5,-179.2,355,,,,,,2026-01-07 13:44:31,10505.0,0.0,294.0,-0.81,0.94,5.972,2.196,25.9,38.0,0.0,720.0,4.2,0.5,38.2,68.1,9004.0,4704.0,1013.0
2026-01-07 13:44:33,2026-01-07 13:44:32,1012.95,+2307,3.72,+2424,2015/10/18,02:49:28,+0000000000,+0000000000,-00017000,00,,,,,,,,,,,,,2026-01-07 13:44:33,00.08,096,-00.08,00.01,00.03,23.64,38.16,1012.14,-177.5,-179.2,353,,,,,,2026-01-07 13:44:32,10506.0,1.99,3363.0,2.0,0.06,5.906,2.236,25.9,38.0,0.0,720.0,4.2,0.5,37.8,68.1,9004.0,4699.0,1013.0
2026-01-07 13:44:34,2026-01-07 13:44:33,1012.88,+2306,3.72,+2424,2015/10/18,02:49:29,+0000000000,+0000000000,-00017000,00,,,,,,,,,,,,,2026-01-07 13:44:34,00.04,043,-00.03,-00.03,00.02,23.46,38.12,1012.15,-177.5,-179.2,354,,,,,,2026-01-07 13:44:33,10507.0,0.0,296.0,-0.69,0.75,5.923,1.387,25.9,38.0,0.0,1200.0,4.2,0.5,37.9,52.0,10347.0,4711.0,1013.0
2026-01-07 13:44:35,2026-01-07 13:44:34,1012.88,+2306,3.72,+2426,2015/10/18,02:49:30,+0000000000,+0000000000,-00017000,00,,,,,,,,,,,,,2026-01-07 13:44:35,00.04,101,-00.03,00.01,00.02,23.55,38.19,1012.16,-177.4,-179.2,355,,,,,,2026-01-07 13:44:34,10508.0,2.0,3367.0,1.94,0.13,5.881,0.852,26.0,38.0,0.0,1200.0,4.2,0.5,37.6,52.0,10347.0,4705.0,1013.0
2026-01-07 13:44:36,2026-01-07 13:44:35,1012.86,+2304,3.72,+2424,2015/10/18,02:49:31,+0000000000,+0000000000,-00017000,00,,,,,,,,,,,,,2026-01-07 13:44:36,00.08,131,-00.06,00.05,00.01,23.39,38.14,1012.18,-177.5,-179.1,356,,,,,,2026-01-07 13:44:35,10509.0,0.0,300.0,-0.44,0.44,5.887,0.46,26.0,38.0,0.0,1200.0,4.2,0.499,37.6,52.0,10347.0,4693.0,1013.0
2026-01-07 13:44:37,2026-01-07 13:44:36,1012.92,+2303,3.72,+2426,2015/10/18,02:49:32,+0000000000,+0000000000,-00017000,00,,,,,,,,,,,,,2026-01-07 13:44:37,00.08,099,-00.07,00.01,00.02,23.52,38.14,1012.11,-177.5,-179.1,353,,,,,,2026-01-07 13:44:36,10510.0,2.0,3365.0,1.81,0.31,5.911,0.173,26.0,38.0,0.0,1199.0,4.18,0.5,37.8,52.0,10347.0,4703.0,1013.0
2026-01-07 13:44:38,2026-01-07 13:44:37,1012.83,+2304,3.72,+2424,2015/10/18,02:49:33,+0000000000,+0000000000,-00017000,00,,,,,,,,,,,,,2026-01-07 13:44:38,00.05,100,-00.05,00.01,00.01,23.45,38.15,1012.13,-177.5,-179.2,355,,,,,,2026-01-07 13:44:37,10511.0,0.0,298.0,-0.69,0.19,5.869,0.347,26.0,38.0,0.0,1200.0,4.2,0.5,37.5,52.0,10347.0,4703.0,1013.0
2026-01-07 13:44:39,2026-01-07 13:44:38,1012.91,+2304,3.72,+2426,2015/10/18,02:49:34,+0000000000,+0000000000,-00017000,00,2026-01-07 13:44:38,32.3,309.8,744.5,1.5003,12.2,0000.00000,00000.00000,0.0,0,07/01/26,13:50:08,2026-01-07 13:44:39,00.06,110,-00.06,00.02,00.00,23.36,38.12,1012.12,-177.5,-179.2,353,,,,,,2026-01-07 13:44:38,10512.0,1.99,3365.0,2.06,0.0,5.874,0.451,26.0,38.0,0.0,1198.0,4.2,0.5,37.5,52.0,10347.0,4734.0,1013.0
2026-01-07 13:44:40,2026-01-07 13:44:39,1012.9,+2304,3.72,+2426,2015/10/18,02:49:35,+0000000000,+0000000000,-00017000,00,,,,,,,,,,,,,2026-01-07 13:44:40,00.10,138,-00.07,00.08,00.00,23.11,38.15,1012.12,-177.4,-179.2,357,,,,,,2026-01-07 13:44:39,10513.0,0.0,297.0,-0.25,3.56,5.844,1.185,26.0,38.0,0.0,84.0,4.2,0.5,37.4,59.0,9424.0,4709.0,1013.0
2026-01-07 13:44:41,2026-01-07 13:44:40,1012.84,+2304,3.72,+2427,2015/10/18,02:49:36,+0000000000,+0000000000,-00017000,00,,,,,,,,,,,,,2026-01-07 13:44:41,00.04,150,-00.02,00.03,00.01,23.38,38.13,1012.15,-177.5,-179.2,354,,,,,,2026-01-07 13:44:40,10514.0,1.99,3364.0,2.25,-2.0,5.908,2.121,26.0,38.0,0.0,100.0,4.2,0.5,37.8,59.0,9424.0,4708.0,1013.0
2026-01-07 13:44:42,2026-01-07 13:44:41,1012.95,+2305,3.72,+2424,2015/10/18,02:49:37,+0000000000,+0000000000,-00017000,00,,,,,,,,,,,,,2026-01-07 13:44:42,00.05,139,-00.03,00.04,00.02,23.37,38.15,1012.15,-177.4,-179.2,360,,,,,,2026-01-07 13:44:41,10515.0,0.0,298.0,-0.38,3.06,5.922,3.453,26.0,38.0,0.0,100.0,4.2,0.5,37.9,59.0,9424.0,4703.0,1013.0
2026-01-07 13:44:43,2026-01-07 13:44:42,1012.87,+2304,3.72,+2424,2015/10/18,02:49:38,+0000000000,+0000000000,-00017000,00,,,,,,,,,,,,,2026-01-07 13:44:43,00.02,053,-00.02,-00.01,00.01,23.42,38.19,1012.14,-177.5,-179.2,356,,,,,,2026-01-07 13:44:42,10516.0,1.99,3367.0,1.94,-2.31,5.914,4.624,26.0,38.0,0.0,99.0,4.18,0.5,37.8,59.0,9424.0,4701.0,1013.0
2026-01-07 13:44:44,2026-01-07 13:44:43,1012.87,+2310,3.72,+2424,2015/10/18,02:49:39,+0000000000,+0000000000,-00017000,00,,,,,,,,,,,,,2026-01-07 13:44:44,00.03,350,00.00,-00.03,00.00,23.55,38.16,1012.14,-177.5,-179.2,353,,,,,,2026-01-07 13:44:43,10517.0,0.0,300.0,-0.06,2.5,5.995,4.998,26.0,38.0,0.0,100.0,4.2,0.5,38.3,59.0,9424.0,4727.0,1013.0
2026-01-07 13:44:45,2026-01-07 13:44:44,1012.88,+2307,3.72,+2424,2015/10/18,02:49:40,+0000000000,+0000000000,-00017000,00,,,,,,,,,,,,,2026-01-07 13:44:45,00.06,165,-00.01,00.05,00.02,23.40,38.13,1012.14,-177.4,-179.2,355,,,,,,2026-01-07 13:44:44,10518.0,1.99,3367.0,1.81,-2.13,5.934,5.173,26.0,38.0,0.0,99.0,4.2,0.5,37.9,59.0,9424.0,4702.0,1013.0
2026-01-07 13:44:46,2026-01-07 13:44:45,1012.89,+2307,3.72,+2424,2015/10/18,02:49:41,+0000000000,+0000000000,-00017000,00,,,,,,,,,,,,,2026-01-07 13:44:46,00.10,186,00.01,00.10,-00.00,23.14,38.13,1012.13,-177.5,-179.2,354,,,,,,2026-01-07 13:44:45,10519.0,0.0,297.0,-0.56,0.94,5.907,4.807,26.0,38.0,0.0,359.0,4.19,0.5,37.8,46.1,11005.0,4702.0,1013.0
2026-01-07 13:44:47,2026-01-07 13:44:46,1012.89,+2307,3.72,+2424,2015/10/18,02:49:42,+0000000000,+0000000000,-00017000,00,,,,,,,,,,,,,2026-01-07 13:44:47,00.10,221,00.06,00.07,00.05,23.35,38.15,1012.14,-177.4,-179.2,357,,,,,,2026-01-07 13:44:46,10520.0,1.99,3363.0,2.38,-1.13,5.94,4.558,26.0,38.0,0.0,359.0,4.2,0.5,38.0,46.1,11005.0,4702.0,1013.0
2026-01-07 13:44:48,2026-01-07 13:44:47,1012.86,+2310,3.72,+2424,2015/10/18,02:49:43,+0000000000,+0000000000,-00017000,00,,,,,,,,,,,,,2026-01-07 13:44:48,00.13,216,00.07,00.10,00.03,23.57,38.12,1012.14,-177.5,-179.2,354,,,,,,2026-01-07 13:44:47,10521.0,0.0,300.0,-0.69,1.63,5.88,4.229,26.0,38.0,0.0,360.0,4.19,0.5,37.6,46.1,11005.0,4711.0,1013.0
2026-01-07 13:44:49,2026-01-07 13:44:48,1012.83,+2307,3.72,+2424,2015/10/18,02:49:44,+0000000000,+0000000000,-00017000,00,2026-01-07 13:44:48,31.3,309.8,745.1,1.5002,12.2,0000.00000,00000.00000,0.0,0,07/01/26,13:50:18,2026-01-07 13:44:49,00.07,155,-00.03,00.06,00.02,23.22,38.18,1012.11,-177.4,-179.2,354,,,,,,2026-01-07 13:44:48,10522.0,2.01,3368.0,2.19,-1.0,5.908,4.023,26.0,38.0,0.0,360.0,4.2,0.498,37.8,46.1,11005.0,4684.0,1013.0
2026-01-07 13:44:50,2026-01-07 13:44:49,1012.93,+2310,3.72,+2424,2015/10/18,02:49:45,+0000000000,+0000000000,-00017000,00,,,,,,,,,,,,,2026-01-07 13:44:50,00.01,192,00.00,00.01,00.00,23.34,38.12,1012.17,-177.5,-179.1,354,,,,,,2026-01-07 13:44:49,10523.0,0.0,298.0,-0.75,0.88,5.924,4.017,26.0,38.0,0.0,360.0,4.19,0.5,37.9,46.1,11005.0,4706.0,1013.0
2026-01-07 13:44:51,2026-01-07 13:44:50,1012.86,+2310,3.71,+2424,2015/10/18,02:49:46,+0000000000,+0000000000,-00017000,00,,,,,,,,,,,,,2026-01-07 13:44:51,00.06,027,-00.03,-00.05,00.02,23.25,38.10,1012.15,-177.5,-179.2,354,,,,,,2026-01-07 13:44:50,10524.0,1.98,3369.0,1.56,-0.69,5.903,3.965,26.0,38.0,0.0,361.0,4.19,0.5,37.7,46.1,11005.0,4700.0,1013.0
2026-01-07 13:44:52,2026-01-07 13:44:51,1012.83,+2308,3.71,+2426,2015/10/18,02:49:47,+0000000000,+0000000000,-00017000,00,,,,,,,,,,,,,2026-01-07 13:44:52,00.16,061,-00.14,-00.08,00.04,23.27,38.10,1012.12,-177.5,-179.2,358,,,,,,2026-01-07 13:44:51,10525.0,0.0,297.0,-0.25,0.25,5.922,3.427,26.0,38.0,0.0,721.0,4.2,0.5,37.9,40.8,12234.0,4703.0,1013.0
2026-01-07 13:44:53,2026-01-07 13:44:52,1012.89,+2307,3.71,+2424,2015/10/18,02:49:48,+0000000000,+0000000000,-00017000,00,,,,,,,,,,,,,2026-01-07 13:44:53,00.10,115,-00.09,00.04,00.03,23.53,38.11,1012.13,-177.4,-179.2,356,,,,,,2026-01-07 13:44:52,10526.0,2.0,3368.0,2.13,-0.44,5.901,2.963,26.0,38.0,0.0,721.0,4.2,0.5,37.7,40.8,12234.0,4699.0,1013.0
2026-01-07 13:44:54,2026-01-07 13:44:53,1012.91,+2305,3.7,+2424,2015/10/18,02:49:49,+0000000000,+0000000000,-00017000,00,,,,,,,,,,,,,2026-01-07 13:44:54,00.10,072,-00.09,-00.03,00.02,23.18,38.12,1012.17,-177.5,-179.2,356,,,,,,2026-01-07 13:44:53,10527.0,0.0,296.0,-0.25,0.38,5.884,2.529,26.0,38.0,0.0,720.0,4.2,0.499,37.6,40.8,12234.0,4689.0,1013.0
2026-01-07 13:44:55,2026-01-07 13:44:54,1012.86,+2305,3.7,+2424,2015/10/18,02:49:50,+0000000000,+0000000000,-00017000,00,,,,,,,,,,,,,2026-01-07 13:44:55,00.12,119,-00.11,00.06,00.00,23.25,38.11,1012.14,-177.5,-179.2,355,,,,,,2026-01-07 13:44:54,10528.0,1.99,3365.0,2.31,0.13,5.864,2.071,26.0,38.0,0.0,720.0,4.2,0.5,37.5,40.8,12234.0,4707.0,1013.0
2026-01-07 13:44:56,2026-01-07 13:44:55,1012.87,+2303,3.7,+2424,2015/10/18,02:49:51,+0000000000,+0000000000,-00017000,00,,,,,,,,,,,,,2026-01-07 13:44:56,00.12,133,-00.09,00.08,00.01,23.05,38.10,1012.18,-177.4,-179.1,356,,,,,,2026-01-07 13:44:55,10529.0,0.0,294.0,-0.56,1.0,5.84,2.101,26.0,38.0,0.0,720.0,4.2,0.5,37.3,40.8,12234.0,4707.0,1013.0
2026-01-07 13:44:57,2026-01-07 13:44:56,1012.88,+2305,3.7,+2424,2015/10/18,02:49:52,+0000000000,+0000000000,-00017000,00,,,,,,,,,,,,,2026-01-07 13:44:57,00.09,214,00.04,00.05,00.06,23.33,38.08,1012.15,-177.4,-179.2,351,,,,,,2026-01-07 13:44:56,10530.0,1.98,3367.0,1.81,0.25,5.824,2.089,26.0,38.0,0.0,721.0,4.2,0.5,37.2,40.8,12234.0,4702.0,1013.0
2026-01-07 13:44:58,2026-01-07 13:44:57,1012.88,+2306,3.71,+2424,2015/10/18,02:49:53,+0000000000,+0000000000,-00017000,00,,,,,,,,,,,,,2026-01-07 13:44:58,00.04,062,-00.02,-00.01,00.02,23.53,38.12,1012.15,-177.4,-179.2,356,,,,,,2026-01-07 13:44:57,10531.0,0.0,301.0,-0.56,-0.06,5.815,1.509,26.0,38.0,0.0,1201.0,4.2,0.5,37.2,57.7,9508.0,4725.0,1013.0
2026-01-07 13:44:59,2026-01-07 13:44:58,1012.88,+2304,3.71,+2424,2015/10/18,02:49:54,+0000000000,+0000000000,-00017000,00,2026-01-07 13:44:58,31.9,309.8,745.8,1.5000,12.2,0000.00000,00000.00000,0.0,0,07/01/26,13:50:28,2026-01-07 13:44:59,00.09,077,-00.07,-00.02,00.05,23.42,38.11,1012.14,-177.4,-179.2,356,,,,,,2026-01-07 13:44:58,10532.0,2.01,3365.0,2.13,0.56,5.807,1.027,26.0,38.0,0.0,1200.0,4.2,0.5,37.1,57.7,9508.0,4707.0,1013.0
2026-01-07 13:45:00,2026-01-07 13:44:59,1012.91,+2306,3.71,+2424,2015/10/18,02:49:55,+0000000000,+0000000000,-00017000,00,,,,,,,,,,,,,2026-01-07 13:45:00,00.08,020,-00.02,-00.06,00.04,23.60,38.06,1012.12,-177.5,-179.2,355,,,,,,2026-01-07 13:44:59,10533.0,0.0,297.0,-0.31,0.19,5.825,0.645,26.0,38.0,0.0,1200.0,4.19,0.5,37.2,57.7,9508.0,4705.0,1013.0
2026-01-07 13:45:01,2026-01-07 13:45:00,1012.9,+2307,3.71,+2426,2015/10/18,02:49:56,+0000000000,+0000000000,-00017000,00,,,,,,,,,,,,,2026-01-07 13:45:01,00.04,243,00.04,00.02,00.01,23.33,38.06,1012.16,-177.5,-179.2,353,,,,,,2026-01-07 13:45:00,10534.0,1.99,3364.0,2.19,-0.13,5.843,0.263,26.0,38.0,0.0,1199.0,4.2,0.5,37.4,57.7,9508.0,4704.0,1013.0
2026-01-07 13:45:02,2026-01-07 13:45:01,1012.84,+2307,3.72,+2424,2015/10/18,02:49:57,+0000000000,+0000000000,-00017000,00,,,,,,,,,,,,,2026-01-07 13:45:02,00.05,090,-00.05,-00.00,00.02,23.29,38.08,1012.12,-177.5,-179.2,356,,,,,,2026-01-07 13:45:01,10535.0,0.0,296.0,-0.63,0.5,5.877,0.394,26.0,38.0,0.0,1200.0,4.19,0.5,37.6,57.7,9508.0,4705.0,1013.0
2026-01-07 13:45:03,2026-01-07 13:45:02,1012.9,+2306,3.71,+2426,2015/10/18,02:49:58,+0000000000,+0000000000,-00017000,00,,,,,,,,,,,,,2026-01-07 13:45:03,00.10,078,-00.09,-00.02,00.01,23.45,38.10,1012.14,-177.5,-179.2,353,,,,,,2026-01-07 13:45:02,10536.0,1.99,3365.0,2.38,-0.25,5.907,0.552,26.0,38.0,0.0,1198.0,4.2,0.5,37.8,57.7,9508.0,4749.0,1013.0
2026-01-07 13:45:04,2026-01-07 13:45:03,1012.89,+2309,3.72,+2423,2015/10/18,02:49:59,+0000000000,+0000000000,-00017000,00,,,,,,,,,,,,,2026-01-07 13:45:04,00.14,048,-00.10,-00.09,00.03,22.99,38.07,1012.13,-177.5,-179.2,355,,,,,,2026-01-07 13:45:03,10537.0,0.0,298.0,-0.44,3.44,5.845,1.316,26.0,38.0,0.0,84.0,4.2,0.5,37.4,55.9,9636.0,4703.0,1013.0
2026-01-07 13:45:05,2026-01-07 13:45:04,1012.91,+2304,3.72,+2424,2015/10/18,02:50:00,+0000000000,+0000000000,-00017000,00,,,,,,,,,,,,,2026-01-07 13:45:05,00.10,049,-00.08,-00.07,00.00,23.03,38.03,1012.16,-177.5,-179.2,354,,,,,,2026-01-07 13:45:04,10538.0,1.99,3363.0,2.38,-1.75,5.832,2.154,26.0,38.0,0.0,98.0,4.2,0.5,37.3,55.9,9636.0,4711.0,1013.0
2026-01-07 13:45:06,2026-01-07 13:45:05,1012.86,+2306,3.72,+2423,2015/10/18,02:50:01,+0000000000,+0000000000,-00017000,00,,,,,,,,,,,,,2026-01-07 13:45:06,00.13,061,-00.10,-00.06,00.04,23.06,38.02,1012.09,-177.5,-179.2,354,,,,,,2026-01-07 13:45:05,10539.0,0.0,296.0,-0.38,3.63,5.831,3.497,26.0,38.0,0.0,99.0,4.19,0.5,37.3,55.9,9636.0,4710.0,1013.0
2026-01-07 13:45:07,2026-01-07 13:45:06,1012.9,+2310,3.72,+2426,2015/10/18,02:50:02,+0000000000,+0000000000,-00017000,00,,,,,,,,,,,,,2026-01-07 13:45:07,00.06,087,-00.06,-00.00,-00.00,23.11,38.06,1012.13,-177.5,-179.2,354,,,,,,2026-01-07 13:45:06,10540.0,1.99,3367.0,2.13,-2.19,5.834,4.572,26.0,38.0,0.0,99.0,4.2,0.5,37.3,55.9,9636.0,4698.0,1013.0
2026-01-07 13:45:08,2026-01-07 13:45:07,1012.88,+2306,3.71,+2424,2015/10/18,02:50:03,+0000000000,+0000000000,-00017000,00,,,,,,,,,,,,,2026-01-07 13:45:08,00.08,080,-00.07,-00.01,00.03,23.35,38.05,1012.15,-177.5,-179.2,355,,,,,,2026-01-07 13:45:07,10541.0,0.0,297.0,-0.81,3.06,5.882,4.921,26.0,38.0,0.0,99.0,4.2,0.499,37.6,55.9,9636.0,4691.0,1013.0
2026-01-07 13:45:09,2026-01-07 13:45:08,1012.9,+2304,3.71,+2424,2015/10/18,02:50:04,+0000000000,+0000000000,-00017000,00,2026-01-07 13:45:08,33.3,309.8,745.4,1.4999,12.2,0000.00000,00000.00000,0.0,0,07/01/26,13:50:38,2026-01-07 13:45:09,00.10,077,-00.09,-00.02,00.04,23.32,38.05,1012.11,-177.5,-179.2,355,,,,,,2026-01-07 13:45:08,10542.0,1.99,3364.0,2.06,-2.0,5.841,5.18,26.0,38.0,0.0,100.0,4.2,0.5,37.3,55.9,9636.0,4697.0,1013.0
2026-01-07 13:45:10,2026-01-07 13:45:09,1012.87,+2310,3.71,+2424,2015/10/18,02:50:05,+0000000000,+0000000000,-00017000,00,,,,,,,,,,,,,2026-01-07 13:45:10,00.04,126,-00.02,00.02,00.02,23.45,38.10,1012.15,-177.5,-179.2,357,,,,,,2026-01-07 13:45:09,10543.0,0.0,296.0,-0.69,1.56,5.809,4.705,26.0,38.0,0.0,360.0,4.2,0.5,37.1,54.1,10062.0,4698.0,1013.0
2026-01-07 13:45:11,2026-01-07 13:45:10,1012.89,+2310,3.71,+2426,2015/10/18,02:50:06,+0000000000,+0000000000,-00017000,00,,,,,,,,,,,,,2026-01-07 13:45:11,00.07,173,-00.01,00.06,00.03,23.33,38.07,1012.15,-177.4,-179.2,356,,,,,,2026-01-07 13:45:10,10544.0,2.01,3364.0,1.88,-1.06,5.841,4.531,26.0,38.0,0.0,360.0,4.19,0.5,37.3,54.1,10062.0,4704.0,1013.0
2026-01-07 13:45:12,2026-01-07 13:45:11,1012.87,+2302,3.71,+2424,2015/10/18,02:50:07,+0000000000,+0000000000,-00017000,00,,,,,,,,,,,,,2026-01-07 13:45:12,00.04,185,00.00,00.04,00.00,23.26,38.03,1012.15,-177.5,-179.1,356,,,,,,2026-01-07 13:45:11,10545.0,0.0,296.0,-0.19,0.94,5.834,4.229,26.0,38.0,0.0,359.0,4.2,0.5,37.3,54.1,10062.0,4702.0,1013.0
2026-01-07 13:45:13,2026-01-07 13:45:12,1012.85,+2303,3.71,+2424,2015/10/18,02:50:08,+0000000000,+0000000000,-00017000,00,,,,,,,,,,,,,2026-01-07 13:45:13,00.04,136,-00.02,00.02,00.03,23.24,38.08,1012.15,-177.5,-179.2,354,,,,,,2026-01-07 13:45:12,10546.0,2.0,3367.0,2.13,-0.5,5.893,4.044,26.0,38.0,0.0,360.0,4.2,0.499,37.7,54.1,10062.0,4698.0,1013.0
2026-01-07 13:45:14,2026-01-07 13:45:13,1012.83,+2306,3.71,+2424,2015/10/18,02:50:09,+0000000000,+0000000000,-00017000,00,,,,,,,,,,,,,2026-01-07 13:45:14,00.16,091,-00.16,00.00,-00.00,23.12,38.06,1012.13,-177.5,-179.2,355,,,,,,2026-01-07 13:45:13,10547.0,0.0,297.0,-0.69,1.25,5.958,4.114,26.0,38.0,0.0,359.0,4.2,0.5,38.1,54.1,10062.0,4699.0,1013.0
2026-01-07 13:45:15,2026-01-07 13:45:14,1012.87,+2297,3.71,+2424,2015/10/18,02:50:10,+0000000000,+0000000000,-00017000,00,,,,,,,,,,,,,2026-01-07 13:45:15,00.14,091,-00.14,00.00,-00.00,23.10,38.07,1012.14,-177.5,-179.2,354,,,,,,2026-01-07 13:45:14,10548.0,2.01,3360.0,2.0,-0.69,5.894,4.06,26.0,38.0,0.0,359.0,4.19,0.5,37.7,54.1,10062.0,4704.0,1013.0
2026-01-07 13:45:16,2026-01-07 13:45:15,1012.9,+2305,3.71,+2424,2015/10/18,02:50:11,+0000000000,+0000000000,-00017000,00,,,,,,,,,,,,,2026-01-07 13:45:16,00.17,132,-00.12,00.11,00.00,23.05,38.08,1012.14,-177.5,-179.2,354,,,,,,2026-01-07 13:45:15,10549.0,0.0,297.0,-0.81,0.38,5.92,3.586,26.0,38.0,0.0,721.0,4.2,0.5,37.8,53.9,10079.0,4706.0,1013.0
2026-01-07 13:45:17,2026-01-07 13:45:16,1012.91,+2305,3.71,+2424,2015/10/18,02:50:12,+0000000000,+0000000000,-00017000,00,,,,,,,,,,,,,2026-01-07 13:45:17,00.17,161,-00.06,00.16,-00.00,23.10,38.04,1012.14,-177.4,-179.2,357,,,,,,2026-01-07 13:45:16,10550.0,1.99,3367.0,2.06,0.0,5.872,3.111,26.0,38.0,0.0,721.0,4.2,0.5,37.5,53.9,10079.0,4705.0,1013.0
2026-01-07 13:45:18,2026-01-07 13:45:17,1012.88,+2303,3.71,+2426,2015/10/18,02:50:13,+0000000000,+0000000000,-00017000,00,2026-01-07 13:45:18,31.4,309.8,744.5,1.4998,12.2,0000.00000,00000.00000,0.0,0,07/01/26,13:50:48,2026-01-07 13:45:18,00.09,113,-00.08,00.03,00.04,23.56,38.03,1012.15,-177.4,-179.2,354,,,,,,2026-01-07 13:45:17,10551.0,0.0,298.0,-0.31,0.63,5.851,2.604,26.0,38.0,0.0,721.0,4.2,0.499,37.4,53.9,10079.0,4681.0,1013.0
2026-01-07 13:45:19,2026-01-07 13:45:18,1012.85,+2305,3.71,+2424,2015/10/18,02:50:14,+0000000000,+0000000000,-00017000,00,,,,,,,,,,,,,2026-01-07 13:45:19,00.18,109,-00.17,00.06,00.00,23.15,38.11,1012.14,-177.4,-179.2,357,,,,,,2026-01-07 13:45:18,10552.0,1.99,3367.0,1.44,-0.19,5.818,2.15,26.0,38.0,0.0,721.0,4.2,0.5,37.2,53.9,10079.0,4703.0,1013.0
2026-01-07 13:45:20,2026-01-07 13:45:19,1012.89,+2303,3.71,+2426,2015/10/18,02:50:15,+0000000000,+0000000000,-00017000,00,,,,,,,,,,,,,2026-01-07 13:45:20,00.18,142,-00.11,00.15,00.01,22.99,38.07,1012.13,-177.4,-179.2,356,,,,,,2026-01-07 13:45:19,10553.0,0.0,298.0,-0.75,-0.06,5.782,2.11,26.0,38.0,0.0,720.0,4.19,0.5,37.0,53.9,10079.0,4699.0,1013.0
2026-01-07 13:45:21,2026-01-07 13:45:20,1012.9,+2304,3.71,+2424,2015/10/18,02:50:16,+0000000000,+0000000000,-00017000,00,,,,,,,,,,,,,2026-01-07 13:45:21,00.11,131,-00.08,00.07,00.01,23.05,38.04,1012.16,-177.5,-179.2,356,,,,,,2026-01-07 13:45:20,10554.0,1.98,3365.0,2.25,0.25,5.831,2.06,26.0,38.0,0.0,719.0,4.2,0.5,37.3,53.9,10079.0,4707.0,1013.0
2026-01-07 13:45:22,2026-01-07 13:45:21,1012.85,+2306,3.71,+2424,2015/10/18,02:50:17,+0000000000,+0000000000,-00017000,00,,,,,,,,,,,,,2026-01-07 13:45:22,00.13,112,-00.12,00.05,00.01,23.16,38.07,1012.15,-177.5,-179.2,357,,,,,,2026-01-07 13:45:21,10555.0,0.0,298.0,-0.5,0.19,5.842,3.894,26.0,38.0,0.0,1201.0,4.2,0.5,37.3,61.6,9153.0,4703.0,1013.0
2026-01-07 13:45:23,2026-01-07 13:45:22,1012.85,+2307,3.71,+2424,2015/10/18,02:50:18,+0000000000,+0000000000,-00017000,00,,,,,,,,,,,,,2026-01-07 13:45:23,00.09,150,-00.05,00.08,00.00,23.14,38.08,1012.18,-177.4,-179.2,357,,,,,,2026-01-07 13:45:22,10556.0,2.0,3367.0,1.94,0.56,5.898,3.754,26.0,38.0,0.0,1201.0,4.2,0.5,37.7,61.6,9153.0,4685.0,1013.0
2026-01-07 13:45:24,2026-01-07 13:45:23,1012.91,+2306,3.72,+2424,2015/10/18,02:50:19,+0000000000,+0000000000,-00017000,00,,,,,,,,,,,,,2026-01-07 13:45:24,00.10,141,-00.06,00.08,-00.00,23.06,38.12,1012.17,-177.5,-179.2,357,,,,,,2026-01-07 13:45:23,10557.0,0.0,294.0,-0.56,0.19,5.922,3.632,26.0,38.0,0.0,1199.0,4.19,0.5,37.9,61.6,9153.0,4708.0,1013.0
2026-01-07 13:45:25,2026-01-07 13:45:24,1012.89,+2303,3.72,+2426,2015/10/18,02:50:20,+0000000000,+0000000000,-00017000,00,,,,,,,,,,,,,2026-01-07 13:45:25,00.12,117,-00.11,00.05,-00.01,23.05,38.11,1012.12,-177.5,-179.2,354,,,,,,2026-01-07 13:45:24,10558.0,2.01,3363.0,2.06,-0.19,5.872,3.575,26.0,38.0,0.0,1200.0,4.2,0.5,37.5,61.6,9153.0,4703.0,1013.0
2026-01-07 13:45:26,2026-01-07 13:45:25,1012.86,+2304,3.72,+2424,2015/10/18,02:50:21,+0000000000,+0000000000,-00017000,00,,,,,,,,,,,,,2026-01-07 13:45:26,00.15,129,-00.12,00.10,00.02,23.09,38.11,1012.16,-177.4,-179.2,354,,,,,,2026-01-07 13:45:25,10559.0,0.0,297.0,-0.38,0.19,5.859,0.359,26.0,38.0,0.0,1200.0,4.19,0.5,37.5,61.6,9153.0,4709.0,1013.0
2026-01-07 13:45:27,2026-01-07 13:45:26,1012.89,+2309,3.72,+2424,2015/10/18,02:50:22,+0000000000,+0000000000,-00017000,00,,,,,,,,,,,,,2026-01-07 13:45:27,00.06,118,-00.05,00.03,00.00,23.32,38.11,1012.15,-177.5,-179.2,356,,,,,,2026-01-07 13:45:26,10560.0,2.0,3364.0,1.94,0.13,5.87,0.502,26.0,38.0,0.0,1200.0,4.19,0.5,37.5,61.6,9153.0,4703.0,1013.0
2026-01-07 13:45:28,2026-01-07 13:45:27,1012.89,+2307,3.72,+2426,2015/10/18,02:50:23,+0000000000,+0000000000,-00017000,00,2026-01-07 13:45:28,30.8,309.8,745.9,1.4996,12.2,0000.00000,00000.00000,0.0,0,07/01/26,13:50:58,2026-01-07 13:45:28,00.04,154,-00.02,00.03,00.02,23.31,38.14,1012.12,-177.5,-179.2,355,,,,,,2026-01-07 13:45:27,10561.0,0.0,296.0,-0.75,3.44,5.889,1.253,26.0,38.0,0.0,84.0,4.2,0.5,37.6,63.5,9107.0,4709.0,1013.0
2026-01-07 13:45:29,2026-01-07 13:45:28,1012.85,+2312,3.72,+2424,2015/10/18,02:50:24,+0000000000,+0000000000,-00017000,00,,,,,,,,,,,,,2026-01-07 13:45:29,00.09,113,-00.09,00.04,00.01,23.33,38.17,1012.13,-177.4,-179.2,354,,,,,,2026-01-07 13:45:28,10562.0,2.0,3367.0,2.0,-1.94,5.919,2.149,26.0,38.0,0.0,100.0,4.2,0.5,37.8,63.5,9107.0,4704.0,1013.0
2026-01-07 13:45:30,2026-01-07 13:45:29,1012.86,+2309,3.72,+2424,2015/10/18,02:50:25,+0000000000,+0000000000,-00017000,00,,,,,,,,,,,,,2026-01-07 13:45:30,00.06,105,-00.06,00.01,00.01,23.34,38.16,1012.14,-177.4,-179.2,357,,,,,,2026-01-07 13:45:29,10563.0,0.0,297.0,-0.19,2.94,5.919,3.443,26.0,38.0,0.0,98.0,4.2,0.5,37.8,63.5,9107.0,4704.0,1013.0
2026-01-07 13:45:31,2026-01-07 13:45:30,1012.89,+2306,3.72,+2426,2015/10/18,02:50:26,+0000000000,+0000000000,-00017000,00,,,,,,,,,,,,,2026-01-07 13:45:31,00.02,141,-00.00,00.01,00.02,23.50,38.13,1012.15,-177.5,-179.2,355,,,,,,2026-01-07 13:45:30,10564.0,2.0,3367.0,1.75,-2.0,5.909,4.566,26.0,38.0,0.0,99.0,4.2,0.499,37.8,63.5,9107.0,4701.0,1013.0
2026-01-07 13:45:32,2026-01-07 13:45:31,1012.88,+2307,3.72,+2424,2015/10/18,02:50:27,+0000000000,+0000000000,-00017000,00,,,,,,,,,,,,,2026-01-07 13:45:32,00.06,080,-00.06,-00.01,00.02,23.40,38.13,1012.14,-177.4,-179.2,354,,,,,,2026-01-07 13:45:31,10565.0,0.0,300.0,-0.25,2.81,5.875,4.88,26.0,38.0,0.0,99.0,4.2,0.5,37.6,63.5,9107.0,4705.0,1013.0
2026-01-07 13:45:33,2026-01-07 13:45:32,1012.92,+2306,3.72,+2426,2015/10/18,02:50:28,+0000000000,+0000000000,-00017000,00,,,,,,,,,,,,,2026-01-07 13:45:33,00.09,078,-00.09,-00.02,00.01,23.27,38.17,1012.16,-177.4,-179.2,354,,,,,,2026-01-07 13:45:32,10566.0,1.99,3368.0,2.44,-2.38,5.849,5.167,26.0,38.0,0.0,100.0,4.2,0.5,37.4,63.5,9107.0,4706.0,1013.0
2026-01-07 13:45:34,2026-01-07 13:45:33,1012.9,+2303,3.72,+2426,2015/10/18,02:50:29,+0000000000,+0000000000,-00017000,00,,,,,,,,,,,,,2026-01-07 13:45:34,00.06,123,-00.05,00.03,00.01,23.24,38.12,1012.17,-177.4,-179.2,355,,,,,,2026-01-07 13:45:33,10567.0,0.0,297.0,-0.31,1.31,5.838,4.81,26.0,38.0,0.0,359.0,4.2,0.5,37.3,58.0,9556.0,4713.0,1013.0
2026-01-07 13:45:35,2026-01-07 13:45:34,1012.88,+2306,3.72,+2424,2015/10/18,02:50:30,+0000000000,+0000000000,-00017000,00,,,,,,,,,,,,,2026-01-07 13:45:35,00.07,112,-00.06,00.03,00.01,23.31,38.20,1012.13,-177.5,-179.2,352,,,,,,2026-01-07 13:45:34,10568.0,2.0,3367.0,2.38,-1.0,5.852,4.716,26.0,38.0,0.0,359.0,4.2,0.5,37.4,58.0,9556.0,4705.0,1013.0
2026-01-07 13:45:36,2026-01-07 13:45:35,1012.91,+2306,3.73,+2426,2015/10/18,02:50:31,+0000000000,+0000000000,-00017000,00,,,,,,,,,,,,,2026-01-07 13:45:36,00.08,111,-00.08,00.03,00.02,23.22,38.13,1012.13,-177.5,-179.2,358,,,,,,2026-01-07 13:45:35,10569.0,0.0,301.0,-0.63,1.5,5.87,4.423,26.0,38.0,0.0,359.0,4.2,0.5,37.5,58.0,9556.0,4705.0,1013.0
2026-01-07 13:45:37,2026-01-07 13:45:36,1012.89,+2309,3.73,+2426,2015/10/18,02:50:32,+0000000000,+0000000000,-00017000,00,,,,,,,,,,,,,2026-01-07 13:45:37,00.05,107,-00.05,00.02,-00.00,23.23,38.16,1012.16,-177.5,-179.2,358,,,,,,2026-01-07 13:45:36,10570.0,1.98,3364.0,2.38,-1.0,5.883,4.142,26.0,38.0,0.0,359.0,4.2,0.5,37.6,58.0,9556.0,4708.0,1013.0
2026-01-07 13:45:38,2026-01-07 13:45:37,1012.81,+2304,3.73,+2426,2015/10/18,02:50:33,+0000000000,+0000000000,-00017000,00,2026-01-07 13:45:38,31.8,309.8,745.2,1.4995,12.2,0000.00000,00000.00000,0.0,0,07/01/26,13:51:08,2026-01-07 13:45:38,00.09,109,-00.09,00.03,00.02,23.18,38.19,1012.17,-177.4,-179.2,358,,,,,,2026-01-07 13:45:37,10571.0,0.0,297.0,-0.88,1.19,5.86,4.138,26.0,38.0,0.0,359.0,4.2,0.5,37.5,58.0,9556.0,4704.0,1013.0
2026-01-07 13:45:39,2026-01-07 13:45:38,1012.84,+2307,3.73,+2424,2015/10/18,02:50:34,+0000000000,+0000000000,-00017000,00,,,,,,,,,,,,,2026-01-07 13:45:39,00.11,129,-00.08,00.07,00.02,23.21,38.16,1012.13,-177.5,-179.2,354,,,,,,2026-01-07 13:45:38,10572.0,2.0,3369.0,1.94,-1.06,5.821,3.958,26.0,38.0,0.0,359.0,4.2,0.5,37.2,58.0,9556.0,4718.0,1013.0
2026-01-07 13:45:40,2026-01-07 13:45:39,1012.86,+2307,3.73,+2426,2015/10/18,02:50:35,+0000000000,+0000000000,-00017000,00,,,,,,,,,,,,,2026-01-07 13:45:40,00.11,134,-00.08,00.08,00.01,23.13,38.19,1012.15,-177.4,-179.2,359,,,,,,2026-01-07 13:45:39,10573.0,0.0,298.0,-0.56,0.19,5.867,3.522,26.0,38.0,0.0,719.0,4.2,0.5,37.5,61.7,9266.0,4703.0,1013.0
2026-01-07 13:45:41,2026-01-07 13:45:40,1012.91,+2307,3.73,+2426,2015/10/18,02:50:36,+0000000000,+0000000000,-00017000,00,,,,,,,,,,,,,2026-01-07 13:45:41,00.10,139,-00.06,00.07,00.01,23.23,38.18,1012.17,-177.4,-179.2,355,,,,,,2026-01-07 13:45:40,10574.0,2.0,3365.0,2.0,0.38,5.861,3.12,26.1,38.0,0.0,721.0,4.2,0.5,37.5,61.7,9266.0,4725.0,1013.0
2026-01-07 13:45:42,2026-01-07 13:45:41,1012.86,+2310,3.73,+2424,2015/10/18,02:50:37,+0000000000,+0000000000,-00017000,00,,,,,,,,,,,,,2026-01-07 13:45:42,00.08,115,-00.07,00.03,00.01,23.28,38.21,1012.15,-177.5,-179.2,358,,,,,,2026-01-07 13:45:41,10575.0,0.0,294.0,-0.25,0.69,5.936,2.616,26.1,38.0,0.0,721.0,4.2,0.5,37.9,61.7,9266.0,4700.0,1014.0
2026-01-07 13:45:43,2026-01-07 13:45:42,1012.9,+2309,3.73,+2426,2015/10/18,02:50:38,+0000000000,+0000000000,-00017000,00,,,,,,,,,,,,,2026-01-07 13:45:43,00.08,104,-00.07,00.02,00.01,23.36,38.18,1012.14,-177.4,-179.2,356,,,,,,2026-01-07 13:45:42,10576.0,2.0,3365.0,1.75,0.5,6.021,2.241,26.1,38.0,0.0,719.0,4.2,0.5,38.5,61.7,9266.0,4700.0,1014.0
2026-01-07 13:45:44,2026-01-07 13:45:43,1012.9,+2307,3.73,+2424,2015/10/18,02:50:39,+0000000000,+0000000000,-00017000,00,,,,,,,,,,,,,2026-01-07 13:45:44,00.05,090,-00.05,-00.00,00.02,23.48,38.20,1012.18,-177.5,-179.2,356,,,,,,2026-01-07 13:45:43,10577.0,0.0,300.0,-0.25,0.75,5.968,2.201,26.0,38.0,0.0,721.0,4.2,0.5,38.1,61.7,9266.0,4720.0,1014.0
2026-01-07 13:45:45,2026-01-07 13:45:44,1012.86,+2307,3.73,+2426,2015/10/18,02:50:40,+0000000000,+0000000000,-00017000,00,,,,,,,,,,,,,2026-01-07 13:45:45,00.06,101,-00.05,00.01,00.03,23.62,38.16,1012.16,-177.5,-179.2,355,,,,,,,,,,,,,,,,,,,,,,,,
2026-01-07 13:45:46,2026-01-07 13:45:45,1012.92,+2309,3.73,+2426,2015/10/18,02:50:41,+0000000000,+0000000000,-00017000,00,,,,,,,,,,,,,2026-01-07 13:45:46,00.06,082,-00.06,-00.01,00.01,23.54,38.16,1012.15,-177.5,-179.2,358,,,,,,2026-01-07 13:45:45,10579.0,0.0,296.0,-0.69,0.81,5.907,1.555,26.0,38.0,0.0,1201.0,4.19,0.5,37.8,61.3,9295.0,4687.0,1013.0
2026-01-07 13:45:47,2026-01-07 13:45:46,1012.89,+2310,3.73,+2426,2015/10/18,02:50:42,+0000000000,+0000000000,-00017000,00,,,,,,,,,,,,,2026-01-07 13:45:47,00.02,142,-00.01,00.02,00.01,23.53,38.18,1012.14,-177.4,-179.2,353,,,,,,2026-01-07 13:45:46,10580.0,2.0,3364.0,2.0,0.25,5.864,1.014,26.0,38.0,0.0,1199.0,4.2,0.5,37.5,61.3,9295.0,4703.0,1013.0
2026-01-07 13:45:48,2026-01-07 13:45:47,1012.82,+2310,3.73,+2426,2015/10/18,02:50:43,+0000000000,+0000000000,-00017000,00,2026-01-07 13:45:48,32.1,309.8,745.8,1.4993,12.2,0000.00000,00000.00000,0.0,0,07/01/26,13:51:18,2026-01-07 13:45:48,00.03,060,-00.02,-00.01,00.02,23.38,38.23,1012.16,-177.5,-179.2,358,,,,,,2026-01-07 13:45:47,10581.0,0.0,302.0,-0.5,0.13,5.863,0.614,26.0,38.0,0.0,1199.0,4.2,0.5,37.5,61.3,9295.0,4705.0,1013.0
2026-01-07 13:45:49,2026-01-07 13:45:48,1012.92,+2306,3.73,+2426,2015/10/18,02:50:44,+0000000000,+0000000000,-00017000,00,,,,,,,,,,,,,2026-01-07 13:45:49,00.03,126,-00.03,00.02,00.00,23.36,38.21,1012.14,-177.4,-179.2,356,,,,,,2026-01-07 13:45:48,10582.0,2.0,3365.0,2.06,0.06,5.887,0.26,26.0,38.0,0.0,1200.0,4.2,0.5,37.6,61.3,9295.0,4723.0,1013.0
2026-01-07 13:45:50,2026-01-07 13:45:49,1012.89,+2310,3.73,+2424,2015/10/18,02:50:45,+0000000000,+0000000000,-00017000,00,,,,,,,,,,,,,2026-01-07 13:45:50,00.05,098,-00.05,00.01,00.01,23.37,38.23,1012.14,-177.5,-179.2,356,,,,,,2026-01-07 13:45:49,10583.0,0.0,301.0,-0.56,0.44,5.881,0.4,26.0,38.0,0.0,1200.0,4.19,0.5,37.6,61.3,9295.0,4706.0,1013.0
2026-01-07 13:45:51,2026-01-07 13:45:50,1012.86,+2308,3.73,+2426,2015/10/18,02:50:46,+0000000000,+0000000000,-00017000,00,,,,,,,,,,,,,2026-01-07 13:45:51,00.06,141,-00.04,00.05,00.01,23.32,38.23,1012.15,-177.4,-179.2,358,,,,,,2026-01-07 13:45:50,10584.0,1.96,3363.0,1.81,0.25,5.87,0.494,26.0,38.0,0.0,1199.0,4.2,0.5,37.5,61.3,9295.0,4704.0,1013.0
2026-01-07 13:45:52,2026-01-07 13:45:51,1012.91,+2308,3.73,+2424,2015/10/18,02:50:47,+0000000000,+0000000000,-00017000,00,,,,,,,,,,,,,2026-01-07 13:45:52,00.10,119,-00.08,00.05,00.03,23.46,38.21,1012.14,-177.4,-179.2,354,,,,,,2026-01-07 13:45:51,10585.0,0.0,301.0,-0.44,3.38,5.922,1.264,26.0,38.0,0.0,84.0,4.2,0.5,37.9,55.0,10121.0,4698.0,1013.0
2026-01-07 13:45:53,2026-01-07 13:45:52,1012.93,+2309,3.73,+2426,2015/10/18,02:50:48,+0000000000,+0000000000,-00017000,00,,,,,,,,,,,,,2026-01-07 13:45:53,00.10,090,-00.09,-00.00,00.02,23.60,38.19,1012.13,-177.5,-179.2,358,,,,,,2026-01-07 13:45:52,10586.0,1.97,3367.0,1.88,-1.69,5.88,2.137,26.0,38.0,0.0,100.0,4.2,0.5,37.6,55.0,10121.0,4703.0,1013.0
2026-01-07 13:45:54,2026-01-07 13:45:53,1012.86,+2310,3.73,+2426,2015/10/18,02:50:49,+0000000000,+0000000000,-00017000,00,,,,,,,,,,,,,2026-01-07 13:45:54,00.08,111,-00.07,00.03,-00.01,23.33,38.22,1012.12,-177.4,-179.2,355,,,,,,2026-01-07 13:45:53,10587.0,0.0,296.0,-0.5,3.38,5.845,3.464,26.0,38.0,0.0,100.0,4.18,0.499,37.4,55.0,10121.0,4712.0,1013.0
2026-01-07 13:45:55,2026-01-07 13:45:54,1012.92,+2310,3.73,+2426,2015/10/18,02:50:50,+0000000000,+0000000000,-00017000,00,,,,,,,,,,,,,2026-01-07 13:45:55,00.09,080,-00.09,-00.02,00.01,23.41,38.23,1012.11,-177.5,-179.2,355,,,,,,2026-01-07 13:45:54,10588.0,1.98,3367.0,2.13,-2.31,5.814,4.594,26.0,38.0,0.0,99.0,4.2,0.5,37.2,55.0,10121.0,4703.0,1013.0
2026-01-07 13:45:56,2026-01-07 13:45:55,1012.84,+2308,3.74,+2426,2015/10/18,02:50:51,+0000000000,+0000000000,-00017000,00,,,,,,,,,,,,,2026-01-07 13:45:56,00.18,064,-00.16,-00.08,00.03,23.35,38.23,1012.12,-177.5,-179.2,358,,,,,,2026-01-07 13:45:55,10589.0,0.0,300.0,-0.56,2.94,5.746,4.985,26.0,38.0,0.0,100.0,4.2,0.5,36.7,55.0,10121.0,4699.0,1013.0
2026-01-07 13:45:57,2026-01-07 13:45:56,1012.79,+2310,3.73,+2426,2015/10/18,02:50:52,+0000000000,+0000000000,-00017000,00,,,,,,,,,,,,,2026-01-07 13:45:57,00.11,080,-00.11,-00.02,00.02,23.35,38.26,1012.15,-177.4,-179.2,360,,,,,,2026-01-07 13:45:56,10590.0,1.99,3367.0,1.81,-2.44,5.795,5.22,26.0,38.0,0.0,100.0,4.2,0.5,37.0,55.0,10121.0,4707.0,1013.0
2026-01-07 13:45:58,2026-01-07 13:45:57,1012.89,+2307,3.74,+2426,2015/10/18,02:50:53,+0000000000,+0000000000,-00017000,00,2026-01-07 13:45:58,31.7,309.8,745.7,1.4992,12.2,0000.00000,00000.00000,0.0,0,07/01/26,13:51:28,2026-01-07 13:45:58,00.05,100,-00.05,00.01,00.01,23.46,38.25,1012.13,-177.4,-179.2,356,,,,,,2026-01-07 13:45:57,10591.0,0.0,298.0,-0.19,0.31,5.856,4.869,26.0,38.0,0.0,358.0,4.2,0.501,37.4,59.7,9557.0,4712.0,1013.0
2026-01-07 13:45:59,2026-01-07 13:45:58,1012.88,+2304,3.74,+2424,2015/10/18,02:50:54,+0000000000,+0000000000,-00017000,00,,,,,,,,,,,,,2026-01-07 13:45:59,00.12,077,-00.11,-00.02,00.03,23.33,38.29,1012.13,-177.5,-179.2,354,,,,,,2026-01-07 13:45:58,10592.0,2.01,3364.0,1.5,-1.44,5.859,4.635,26.0,38.0,0.0,359.0,4.2,0.5,37.4,59.7,9557.0,4705.0,1013.0
2026-01-07 13:46:00,2026-01-07 13:45:59,1012.89,+2304,3.74,+2424,2015/10/18,02:50:55,+0000000000,+0000000000,-00017000,00,,,,,,,,,,,,,2026-01-07 13:46:00,00.07,095,-00.06,00.01,00.01,23.36,38.27,1012.11,-177.5,-179.2,352,,,,,,2026-01-07 13:45:59,10593.0,0.0,297.0,-0.44,1.19,5.878,4.306,26.0,38.0,0.0,360.0,4.2,0.5,37.6,59.7,9557.0,4718.0,1013.0
2026-01-07 13:46:01,2026-01-07 13:46:00,1012.9,+2305,3.74,+2424,2015/10/18,02:50:56,+0000000000,+0000000000,-00017000,00,,,,,,,,,,,,,2026-01-07 13:46:01,00.12,063,-00.10,-00.05,00.03,23.42,38.26,1012.14,-177.5,-179.2,352,,,,,,2026-01-07 13:46:00,10594.0,1.97,3367.0,2.06,-1.13,5.875,4.115,26.0,38.0,0.0,360.0,4.2,0.5,37.6,59.7,9557.0,4704.0,1013.0
2026-01-07 13:46:02,2026-01-07 13:46:01,1012.87,+2303,3.74,+2426,2015/10/18,02:50:57,+0000000000,+0000000000,-00017000,00,,,,,,,,,,,,,2026-01-07 13:46:02,00.09,066,-00.08,-00.04,00.03,23.44,38.23,1012.14,-177.4,-179.1,357,,,,,,2026-01-07 13:46:01,10595.0,0.0,298.0,-0.31,1.75,5.882,4.085,26.0,38.0,0.0,359.0,4.19,0.5,37.6,59.7,9557.0,4702.0,1013.0
2026-01-07 13:46:03,2026-01-07 13:46:02,1012.86,+2306,3.74,+2424,2015/10/18,02:50:58,+0000000000,+0000000000,-00017000,00,,,,,,,,,,,,,2026-01-07 13:46:03,00.06,039,-00.03,-00.04,00.02,23.27,38.23,1012.13,-177.4,-179.2,355,,,,,,2026-01-07 13:46:02,10596.0,2.0,3364.0,1.75,-1.19,5.956,4.023,26.0,38.0,0.0,362.0,4.2,0.5,38.1,59.7,9557.0,4719.0,1013.0
2026-01-07 13:46:04,2026-01-07 13:46:03,1012.87,+2303,3.74,+2424,2015/10/18,02:50:59,+0000000000,+0000000000,-00017000,00,,,,,,,,,,,,,2026-01-07 13:46:04,00.03,018,-00.01,-00.02,00.02,23.40,38.26,1012.16,-177.5,-179.1,353,,,,,,2026-01-07 13:46:03,10597.0,0.0,298.0,-0.56,-0.25,5.99,3.518,26.0,38.0,0.0,720.0,4.2,0.5,38.3,61.3,9562.0,4706.0,1013.0
2026-01-07 13:46:05,2026-01-07 13:46:04,1012.88,+2307,3.74,+2426,2015/10/18,02:51:00,+0000000000,+0000000000,-00017000,00,,,,,,,,,,,,,2026-01-07 13:46:05,00.02,042,-00.01,-00.01,00.02,23.63,38.31,1012.16,-177.5,-179.2,353,,,,,,2026-01-07 13:46:04,10598.0,1.99,3369.0,1.63,-0.25,5.919,2.993,26.0,38.0,0.0,720.0,4.2,0.5,37.8,61.3,9562.0,4684.0,1013.0
2026-01-07 13:46:06,2026-01-07 13:46:05,1012.89,+2306,3.74,+2424,2015/10/18,02:51:01,+0000000000,+0000000000,-00017000,00,,,,,,,,,,,,,2026-01-07 13:46:06,00.04,214,00.02,00.03,00.01,23.50,38.24,1012.17,-177.5,-179.2,354,,,,,,2026-01-07 13:46:05,10599.0,0.0,296.0,-0.44,0.5,5.875,2.542,26.0,38.0,0.0,719.0,4.2,0.5,37.6,61.3,9562.0,4706.0,1013.0
2026-01-07 13:46:07,2026-01-07 13:46:06,1012.87,+2304,3.74,+2426,2015/10/18,02:51:02,+0000000000,+0000000000,-00017000,00,,,,,,,,,,,,,2026-01-07 13:46:07,00.03,223,00.01,00.01,00.02,23.41,38.27,1012.15,-177.5,-179.2,354,,,,,,2026-01-07 13:46:06,10600.0,1.98,3365.0,1.75,0.13,5.809,2.101,26.0,38.0,0.0,720.0,4.2,0.5,37.1,61.3,9562.0,4700.0,1013.0
2026-01-07 13:46:08,2026-01-07 13:46:07,1012.87,+2304,3.74,+2426,2015/10/18,02:51:03,+0000000000,+0000000000,-00017000,00,2026-01-07 13:46:08,30.5,309.8,745.4,1.4991,12.2,0000.00000,00000.00000,0.0,0,07/01/26,13:51:38,2026-01-07 13:46:08,00.07,091,-00.07,00.00,00.01,23.54,38.29,1012.13,-177.5,-179.2,355,,,,,,2026-01-07 13:46:07,10601.0,0.0,297.0,-0.19,0.44,5.792,2.053,26.0,38.0,0.0,720.0,4.19,0.5,37.0,61.3,9562.0,4718.0,1013.0
2026-01-07 13:46:09,2026-01-07 13:46:08,1012.88,+2309,3.74,+2424,2015/10/18,02:51:04,+0000000000,+0000000000,-00017000,00,,,,,,,,,,,,,2026-01-07 13:46:09,00.09,096,-00.08,00.01,00.02,23.73,38.29,1012.13,-177.5,-179.2,355,,,,,,2026-01-07 13:46:08,10602.0,1.99,3367.0,2.0,-0.06,5.806,2.037,26.0,38.0,0.0,721.0,4.2,0.5,37.1,61.3,9562.0,4703.0,1013.0
2026-01-07 13:46:10,2026-01-07 13:46:09,1012.89,+2303,3.74,+2424,2015/10/18,02:51:05,+0000000000,+0000000000,-00017000,00,,,,,,,,,,,,,2026-01-07 13:46:10,00.11,087,-00.11,-00.01,-00.00,23.30,38.27,1012.16,-177.4,-179.2,355,,,,,,2026-01-07 13:46:09,10603.0,0.0,301.0,-0.25,0.69,5.837,1.479,26.0,38.0,0.0,1200.0,4.2,0.5,37.3,63.2,9133.0,4703.0,1013.0
2026-01-07 13:46:11,2026-01-07 13:46:10,1012.89,+2303,3.74,+2426,2015/10/18,02:51:06,+0000000000,+0000000000,-00017000,00,,,,,,,,,,,,,2026-01-07 13:46:11,00.08,103,-00.07,00.02,00.02,23.29,38.30,1012.15,-177.4,-179.2,355,,,,,,2026-01-07 13:46:10,10604.0,2.0,3365.0,2.19,-0.31,5.903,0.98,26.0,38.0,0.0,1200.0,4.19,0.5,37.7,63.2,9133.0,4706.0,1013.0
2026-01-07 13:46:12,2026-01-07 13:46:11,1012.89,+2303,3.74,+2424,2015/10/18,02:51:07,+0000000000,+0000000000,-00017000,00,,,,,,,,,,,,,2026-01-07 13:46:12,00.07,151,-00.04,00.07,-00.00,23.16,38.27,1012.16,-177.4,-179.2,353,,,,,,2026-01-07 13:46:11,10605.0,0.0,302.0,-0.56,0.88,5.873,0.592,26.0,38.0,0.0,1200.0,4.2,0.5,37.5,63.2,9133.0,4706.0,1013.0
2026-01-07 13:46:13,2026-01-07 13:46:12,1012.9,+2304,3.74,+2426,2015/10/18,02:51:08,+0000000000,+0000000000,-00017000,00,,,,,,,,,,,,,2026-01-07 13:46:13,00.07,163,-00.02,00.06,-00.00,23.28,38.27,1012.16,-177.4,-179.2,354,,,,,,2026-01-07 13:46:12,10606.0,1.98,3367.0,2.13,0.0,5.919,0.212,26.0,38.0,0.0,1200.0,4.2,0.499,37.8,63.2,9133.0,4729.0,1013.0
2026-01-07 13:46:14,2026-01-07 13:46:13,1012.92,+2307,3.74,+2424,2015/10/18,02:51:09,+0000000000,+0000000000,-00017000,00,,,,,,,,,,,,,2026-01-07 13:46:14,00.08,163,-00.02,00.07,00.01,23.49,38.30,1012.13,-177.5,-179.1,356,,,,,,2026-01-07 13:46:13,10607.0,0.0,294.0,-0.69,0.13,5.893,0.354,26.0,38.0,0.0,1200.0,4.19,0.5,37.7,63.2,9133.0,4707.0,1013.0
2026-01-07 13:46:15,2026-01-07 13:46:14,1012.9,+2303,3.74,+2426,2015/10/18,02:51:10,+0000000000,+0000000000,-00017000,00,,,,,,,,,,,,,2026-01-07 13:46:15,00.05,123,-00.04,00.03,00.00,23.67,38.32,1012.14,-177.5,-179.1,354,,,,,,2026-01-07 13:46:14,10608.0,2.0,3367.0,1.88,-0.19,5.845,0.443,26.0,38.0,0.0,1201.0,4.19,0.5,37.4,63.2,9133.0,4701.0,1013.0
2026-01-07 13:46:16,2026-01-07 13:46:15,1012.89,+2307,3.74,+2424,2015/10/18,02:51:11,+0000000000,+0000000000,-00017000,00,,,,,,,,,,,,,2026-01-07 13:46:16,00.09,090,-00.09,-00.00,00.01,23.66,38.30,1012.15,-177.4,-179.2,353,,,,,,2026-01-07 13:46:15,10609.0,0.0,294.0,-0.44,2.88,5.845,1.191,26.0,38.0,0.0,85.0,4.2,0.5,37.4,61.0,9496.0,4704.0,1013.0
2026-01-07 13:46:17,2026-01-07 13:46:16,1012.88,+2307,3.74,+2424,2015/10/18,02:51:12,+0000000000,+0000000000,-00017000,00,,,,,,,,,,,,,2026-01-07 13:46:17,00.12,133,-00.09,00.08,00.01,23.08,38.30,1012.17,-177.5,-179.2,357,,,,,,2026-01-07 13:46:16,10610.0,1.98,3367.0,2.69,-2.25,5.835,2.023,26.0,38.0,0.0,100.0,4.2,0.5,37.3,61.0,9496.0,4699.0,1013.0
2026-01-07 13:46:18,2026-01-07 13:46:17,1012.9,+2306,3.75,+2426,2015/10/18,02:51:13,+0000000000,+0000000000,-00017000,00,2026-01-07 13:46:18,26.2,309.8,744.3,1.4991,12.2,0000.00000,00000.00000,0.0,0,07/01/26,13:51:48,2026-01-07 13:46:18,00.08,127,-00.06,00.05,00.02,23.12,38.32,1012.15,-177.4,-179.2,358,,,,,,2026-01-07 13:46:17,10611.0,0.0,296.0,-0.25,3.19,5.815,3.32,26.0,38.0,0.0,100.0,4.2,0.499,37.2,61.0,9496.0,4696.0,1013.0
2026-01-07 13:46:19,2026-01-07 13:46:18,1012.9,+2303,3.74,+2426,2015/10/18,02:51:14,+0000000000,+0000000000,-00017000,00,,,,,,,,,,,,,2026-01-07 13:46:19,00.10,096,-00.09,00.01,00.02,23.26,38.33,1012.12,-177.5,-179.2,355,,,,,,2026-01-07 13:46:18,10612.0,1.99,3368.0,2.44,-2.25,5.885,4.57,26.0,38.0,0.0,101.0,4.19,0.5,37.6,61.0,9496.0,4703.0,1013.0
2026-01-07 13:46:20,2026-01-07 13:46:19,1012.89,+2306,3.75,+2424,2015/10/18,02:51:15,+0000000000,+0000000000,-00017000,00,,,,,,,,,,,,,2026-01-07 13:46:20,00.22,134,-00.16,00.15,00.02,23.09,38.33,1012.13,-177.4,-179.1,358,,,,,,2026-01-07 13:46:19,10613.0,0.0,297.0,-0.44,2.75,5.899,4.987,26.0,38.0,0.0,99.0,4.2,0.5,37.7,61.0,9496.0,4705.0,1013.0
2026-01-07 13:46:21,2026-01-07 13:46:20,1012.89,+2307,3.75,+2426,2015/10/18,02:51:16,+0000000000,+0000000000,-00017000,00,,,,,,,,,,,,,2026-01-07 13:46:21,00.10,133,-00.07,00.06,00.01,23.12,38.31,1012.14,-177.5,-179.2,359,,,,,,2026-01-07 13:46:20,10614.0,2.0,3368.0,2.06,-1.94,5.866,5.238,26.0,38.0,0.0,100.0,4.2,0.5,37.5,61.0,9496.0,4702.0,1013.0
2026-01-07 13:46:22,2026-01-07 13:46:21,1012.84,+2306,3.75,+2426,2015/10/18,02:51:17,+0000000000,+0000000000,-00017000,00,,,,,,,,,,,,,2026-01-07 13:46:22,00.06,087,-00.05,-00.00,00.01,23.28,38.34,1012.12,-177.5,-179.2,351,,,,,,2026-01-07 13:46:21,10615.0,0.0,298.0,-0.56,0.13,5.968,4.873,26.0,38.0,0.0,360.0,4.2,0.5,38.1,64.3,9182.0,4695.0,1013.0
2026-01-07 13:46:23,2026-01-07 13:46:22,1012.89,+2306,3.75,+2426,2015/10/18,02:51:18,+0000000000,+0000000000,-00017000,00,,,,,,,,,,,,,2026-01-07 13:46:23,00.08,121,-00.07,00.04,00.03,23.46,38.33,1012.15,-177.5,-179.2,355,,,,,,2026-01-07 13:46:22,10616.0,1.98,3367.0,2.56,-1.38,5.856,4.629,26.0,38.0,0.0,359.0,4.2,0.499,37.4,64.3,9182.0,4671.0,1013.0
2026-01-07 13:46:24,2026-01-07 13:46:23,1012.92,+2308,3.75,+2426,2015/10/18,02:51:19,+0000000000,+0000000000,-00017000,00,,,,,,,,,,,,,2026-01-07 13:46:24,00.04,106,-00.03,00.01,00.01,23.45,38.33,1012.18,-177.5,-179.2,353,,,,,,2026-01-07 13:46:23,10617.0,0.0,294.0,-0.56,1.06,5.828,4.309,26.0,38.0,0.0,359.0,4.2,0.5,37.3,64.3,9182.0,4703.0,1013.0
2026-01-07 13:46:25,2026-01-07 13:46:24,1012.88,+2307,3.75,+2426,2015/10/18,02:51:20,+0000000000,+0000000000,-00017000,00,,,,,,,,,,,,,2026-01-07 13:46:25,00.04,194,00.01,00.03,00.01,23.54,38.33,1012.16,-177.4,-179.2,355,,,,,,2026-01-07 13:46:24,10618.0,1.99,3367.0,1.94,-0.5,5.846,4.041,26.0,38.0,0.0,359.0,4.2,0.5,37.4,64.3,9182.0,4704.0,1013.0
2026-01-07 13:46:26,2026-01-07 13:46:25,1012.96,+2303,3.75,+2427,2015/10/18,02:51:21,+0000000000,+0000000000,-00017000,00,,,,,,,,,,,,,2026-01-07 13:46:26,00.08,243,00.08,00.04,-00.00,23.20,38.35,1012.16,-177.4,-179.1,354,,,,,,2026-01-07 13:46:25,10619.0,0.0,296.0,-1.06,1.06,5.769,4.026,26.0,38.0,0.0,360.0,4.19,0.5,36.9,64.3,9182.0,4701.0,1013.0
2026-01-07 13:46:27,2026-01-07 13:46:26,1012.87,+2310,3.75,+2426,2015/10/18,02:51:22,+0000000000,+0000000000,-00017000,00,,,,,,,,,,,,,2026-01-07 13:46:27,00.05,255,00.04,00.01,00.03,23.56,38.31,1012.10,-177.4,-179.2,356,,,,,,2026-01-07 13:46:26,10620.0,2.0,3369.0,2.75,-1.0,5.787,3.894,26.0,38.0,0.0,360.0,4.2,0.5,37.0,64.3,9182.0,4701.0,1013.0
2026-01-07 13:46:28,2026-01-07 13:46:27,1012.82,+2309,3.75,+2426,2015/10/18,02:51:23,+0000000000,+0000000000,-00017000,00,2026-01-07 13:46:28,25.9,309.8,745.9,1.4990,12.2,0000.00000,00000.00000,0.0,0,07/01/26,13:51:58,2026-01-07 13:46:28,00.04,240,00.03,00.02,00.01,23.38,38.33,1012.17,-177.5,-179.2,357,,,,,,2026-01-07 13:46:27,10621.0,0.0,294.0,-0.69,-0.06,5.817,3.409,26.0,38.0,0.0,720.0,4.2,0.5,37.2,62.6,9180.0,4675.0,1013.0
2026-01-07 13:46:29,2026-01-07 13:46:28,1012.87,+2312,3.75,+2426,2015/10/18,02:51:24,+0000000000,+0000000000,-00017000,00,,,,,,,,,,,,,2026-01-07 13:46:29,00.06,231,00.05,00.04,00.02,23.45,38.36,1012.15,-177.4,-179.2,355,,,,,,2026-01-07 13:46:28,10622.0,1.99,3367.0,1.88,-0.19,5.797,2.949,26.0,38.0,0.0,719.0,4.2,0.5,37.1,62.6,9180.0,4704.0,1013.0
2026-01-07 13:46:30,2026-01-07 13:46:29,1012.9,+2307,3.75,+2426,2015/10/18,02:51:25,+0000000000,+0000000000,-00017000,00,,,,,,,,,,,,,2026-01-07 13:46:30,00.02,182,00.00,00.02,00.01,23.34,38.33,1012.16,-177.4,-179.2,357,,,,,,2026-01-07 13:46:29,10623.0,0.0,296.0,-0.63,0.38,5.817,2.437,26.0,38.0,0.0,721.0,4.2,0.5,37.2,62.6,9180.0,4702.0,1013.0
2026-01-07 13:46:31,2026-01-07 13:46:30,1012.87,+2307,3.75,+2426,2015/10/18,02:51:26,+0000000000,+0000000000,-00017000,00,,,,,,,,,,,,,2026-01-07 13:46:31,00.02,187,00.00,00.01,00.02,23.33,38.36,1012.13,-177.4,-179.2,359,,,,,,2026-01-07 13:46:30,10624.0,2.0,3368.0,2.75,0.38,5.723,2.04,26.0,38.0,0.0,719.0,4.19,0.499,36.6,62.6,9180.0,4704.0,1013.0
2026-01-07 13:46:32,2026-01-07 13:46:31,1012.88,+2309,3.75,+2427,2015/10/18,02:51:27,+0000000000,+0000000000,-00017000,00,,,,,,,,,,,,,2026-01-07 13:46:32,00.04,124,-00.03,00.02,00.02,23.41,38.31,1012.14,-177.4,-179.2,353,,,,,,2026-01-07 13:46:31,10625.0,0.0,298.0,-0.25,0.06,5.65,1.968,26.0,39.0,0.0,721.0,4.2,0.5,36.1,62.6,9180.0,4700.0,1013.0
2026-01-07 13:46:33,2026-01-07 13:46:32,1012.93,+2309,3.75,+2426,2015/10/18,02:51:28,+0000000000,+0000000000,-00017000,00,,,,,,,,,,,,,2026-01-07 13:46:33,00.03,162,-00.01,00.02,00.01,23.49,38.33,1012.14,-177.5,-179.2,354,,,,,,2026-01-07 13:46:32,10626.0,1.97,3367.0,2.38,-0.25,5.731,1.928,26.0,39.0,0.0,720.0,4.2,0.5,36.6,62.6,9180.0,4704.0,1013.0
2026-01-07 13:46:34,2026-01-07 13:46:33,1012.86,+2307,3.75,+2427,2015/10/18,02:51:29,+0000000000,+0000000000,-00017000,00,,,,,,,,,,,,,2026-01-07 13:46:34,00.07,122,-00.06,00.04,00.03,23.52,38.32,1012.16,-177.5,-179.2,353,,,,,,2026-01-07 13:46:33,10627.0,0.0,300.0,-0.25,0.63,5.708,1.453,26.0,39.0,0.0,1199.0,4.2,0.5,36.5,62.4,9252.0,4707.0,1013.0
2026-01-07 13:46:35,2026-01-07 13:46:34,1012.92,+2307,3.75,+2426,2015/10/18,02:51:30,+0000000000,+0000000000,-00017000,00,,,,,,,,,,,,,2026-01-07 13:46:35,00.04,109,-00.03,00.01,00.02,23.55,38.35,1012.14,-177.5,-179.2,356,,,,,,2026-01-07 13:46:34,10628.0,1.99,3368.0,1.63,0.31,5.823,0.993,26.0,38.0,0.0,1200.0,4.2,0.5,37.2,62.4,9252.0,4701.0,1013.0
2026-01-07 13:46:36,2026-01-07 13:46:35,1012.9,+2310,3.75,+2426,2015/10/18,02:51:31,+0000000000,+0000000000,-00017000,00,,,,,,,,,,,,,2026-01-07 13:46:36,00.04,170,-00.00,00.03,00.03,23.54,38.31,1012.15,-177.4,-179.2,352,,,,,,2026-01-07 13:46:35,10629.0,0.0,302.0,-0.5,0.5,5.884,0.613,26.0,38.0,0.0,1201.0,4.2,0.5,37.6,62.4,9252.0,4700.0,1013.0
2026-01-07 13:46:37,2026-01-07 13:46:36,1012.88,+2315,3.76,+2427,2015/10/18,02:51:32,+0000000000,+0000000000,-00017000,00,,,,,,,,,,,,,2026-01-07 13:46:37,00.03,177,-00.00,00.03,00.02,23.78,38.38,1012.12,-177.5,-179.2,358,,,,,,2026-01-07 13:46:36,10630.0,1.99,3367.0,2.31,0.5,5.84,0.243,26.0,38.0,0.0,1201.0,4.2,0.5,37.3,62.4,9252.0,4706.0,1013.0
2026-01-07 13:46:38,2026-01-07 13:46:37,1012.87,+2310,3.75,+2426,2015/10/18,02:51:33,+0000000000,+0000000000,-00017000,00,2026-01-07 13:46:38,29.7,309.8,746.1,1.4990,12.2,0000.00000,00000.00000,0.0,0,07/01/26,13:52:08,2026-01-07 13:46:38,00.04,085,-00.04,-00.00,00.01,23.68,38.36,1012.14,-177.5,-179.2,356,,,,,,2026-01-07 13:46:37,10631.0,0.0,300.0,-0.13,0.25,5.834,0.369,26.0,38.0,0.0,1200.0,4.19,0.5,37.3,62.4,9252.0,4705.0,1013.0
2026-01-07 13:46:39,2026-01-07 13:46:38,1012.86,+2309,3.76,+2426,2015/10/18,02:51:34,+0000000000,+0000000000,-00017000,00,,,,,,,,,,,,,2026-01-07 13:46:39,00.05,093,-00.04,00.00,00.03,23.56,38.33,1012.16,-177.4,-179.2,354,,,,,,2026-01-07 13:46:38,10632.0,1.99,3367.0,2.31,0.63,5.799,0.432,26.0,38.0,0.0,1198.0,4.2,0.5,37.1,62.4,9252.0,4705.0,1013.0
2026-01-07 13:46:40,2026-01-07 13:46:39,1012.9,+2310,3.76,+2426,2015/10/18,02:51:35,+0000000000,+0000000000,-00017000,00,,,,,,,,,,,,,2026-01-07 13:46:40,00.07,084,-00.06,-00.01,00.04,23.50,38.32,1012.14,-177.5,-179.2,356,,,,,,2026-01-07 13:46:39,10633.0,0.0,297.0,-0.5,3.06,5.763,1.21,26.0,38.0,0.0,83.0,4.2,0.5,36.8,62.9,9200.0,4701.0,1013.0
2026-01-07 13:46:41,2026-01-07 13:46:40,1012.86,+2309,3.76,+2427,2015/10/18,02:51:36,+0000000000,+0000000000,-00017000,00,,,,,,,,,,,,,2026-01-07 13:46:41,00.04,087,-00.03,-00.00,00.03,23.52,38.35,1012.15,-177.4,-179.1,353,,,,,,2026-01-07 13:46:40,10634.0,1.99,3367.0,2.69,-1.81,5.74,2.151,26.0,38.0,0.0,99.0,4.2,0.499,36.7,62.9,9200.0,4696.0,1013.0
2026-01-07 13:46:42,2026-01-07 13:46:41,1012.89,+2306,3.76,+2426,2015/10/18,02:51:37,+0000000000,+0000000000,-00017000,00,,,,,,,,,,,,,2026-01-07 13:46:42,00.05,113,-00.04,00.02,00.03,23.46,38.36,1012.16,-177.5,-179.2,357,,,,,,2026-01-07 13:46:41,10635.0,0.0,301.0,-0.81,2.56,5.77,3.49,26.0,38.0,0.0,99.0,4.2,0.5,36.9,62.9,9200.0,4703.0,1013.0
2026-01-07 13:46:43,2026-01-07 13:46:42,1012.9,+2309,3.76,+2426,2015/10/18,02:51:38,+0000000000,+0000000000,-00017000,00,,,,,,,,,,,,,2026-01-07 13:46:43,00.06,113,-00.04,00.02,00.04,23.56,38.35,1012.15,-177.5,-179.2,353,,,,,,2026-01-07 13:46:42,10636.0,1.99,3367.0,1.75,-2.5,5.812,4.623,26.0,38.0,0.0,100.0,4.19,0.5,37.1,62.9,9200.0,4700.0,1013.0
2026-01-07 13:46:44,2026-01-07 13:46:43,1012.87,+2310,3.76,+2428,2015/10/18,02:51:39,+0000000000,+0000000000,-00017000,00,,,,,,,,,,,,,2026-01-07 13:46:44,00.03,124,-00.02,00.01,00.02,23.57,38.36,1012.18,-177.5,-179.2,352,,,,,,2026-01-07 13:46:43,10637.0,0.0,298.0,-0.69,2.56,5.852,5.09,26.0,39.0,0.0,100.0,4.2,0.501,37.4,62.9,9200.0,4714.0,1013.0
2026-01-07 13:46:45,2026-01-07 13:46:44,1012.79,+2309,3.76,+2427,2015/10/18,02:51:40,+0000000000,+0000000000,-00017000,00,,,,,,,,,,,,,2026-01-07 13:46:45,00.06,078,-00.05,-00.01,00.02,23.55,38.33,1012.11,-177.5,-179.2,358,,,,,,2026-01-07 13:46:44,10638.0,1.98,3368.0,2.38,-2.13,5.916,5.275,26.0,39.0,0.0,100.0,4.2,0.5,37.8,62.9,9200.0,4698.0,1013.0
2026-01-07 13:46:46,2026-01-07 13:46:45,1012.88,+2309,3.76,+2426,2015/10/18,02:51:41,+0000000000,+0000000000,-00017000,00,,,,,,,,,,,,,2026-01-07 13:46:46,00.06,106,-00.05,00.01,00.03,23.54,38.37,1012.15,-177.4,-179.2,355,,,,,,2026-01-07 13:46:45,10639.0,0.0,294.0,-0.5,0.75,5.918,4.813,26.0,39.0,0.0,360.0,4.2,0.5,37.8,56.0,10199.0,4715.0,1013.0
2026-01-07 13:46:47,2026-01-07 13:46:46,1012.9,+2307,3.76,+2426,2015/10/18,02:51:42,+0000000000,+0000000000,-00017000,00,,,,,,,,,,,,,2026-01-07 13:46:47,00.05,071,-00.05,-00.02,00.02,23.53,38.35,1012.16,-177.5,-179.2,356,,,,,,2026-01-07 13:46:46,10640.0,1.99,3363.0,1.75,-1.25,5.874,4.636,26.0,39.0,0.0,358.0,4.19,0.5,37.5,56.0,10199.0,4702.0,1013.0
2026-01-07 13:46:48,2026-01-07 13:46:47,1012.88,+2309,3.76,+2427,2015/10/18,02:51:43,+0000000000,+0000000000,-00017000,00,2026-01-07 13:46:48,30.8,309.8,746.0,1.4990,12.2,0000.00000,00000.00000,0.0,0,07/01/26,13:52:18,2026-01-07 13:46:48,00.04,102,-00.03,00.01,00.02,23.53,38.40,1012.14,-177.4,-179.2,355,,,,,,2026-01-07 13:46:47,10641.0,0.0,298.0,-0.38,1.44,5.86,4.154,26.0,39.0,0.0,360.0,4.2,0.5,37.5,56.0,10199.0,4703.0,1013.0
2026-01-07 13:46:49,2026-01-07 13:46:48,1012.87,+2309,3.76,+2428,2015/10/18,02:51:44,+0000000000,+0000000000,-00017000,00,,,,,,,,,,,,,2026-01-07 13:46:49,00.04,082,-00.03,-00.00,00.02,23.55,38.37,1012.13,-177.5,-179.2,355,,,,,,2026-01-07 13:46:48,10642.0,1.99,3369.0,2.5,-1.19,5.771,3.912,26.0,39.0,0.0,359.0,4.2,0.5,36.9,56.0,10199.0,4710.0,1013.0
2026-01-07 13:46:50,2026-01-07 13:46:49,1012.88,+2309,3.76,+2426,2015/10/18,02:51:45,+0000000000,+0000000000,-00017000,00,,,,,,,,,,,,,2026-01-07 13:46:50,00.05,086,-00.04,-00.00,00.02,23.55,38.40,1012.15,-177.4,-179.2,356,,,,,,2026-01-07 13:46:49,10643.0,0.0,297.0,-0.63,1.25,5.778,4.0,26.0,38.0,0.0,360.0,4.2,0.5,36.9,56.0,10199.0,4701.0,1013.0
2026-01-07 13:46:51,2026-01-07 13:46:50,1012.82,+2307,3.76,+2427,2015/10/18,02:51:46,+0000000000,+0000000000,-00017000,00,,,,,,,,,,,,,2026-01-07 13:46:51,00.05,097,-00.04,00.01,00.03,23.54,38.36,1012.14,-177.5,-179.2,355,,,,,,2026-01-07 13:46:50,10644.0,1.99,3368.0,1.94,-1.06,5.797,3.881,26.0,38.0,0.0,360.0,4.2,0.499,37.1,56.0,10199.0,4685.0,1013.0
2026-01-07 13:46:52,2026-01-07 13:46:51,1012.82,+2310,3.76,+2427,2015/10/18,02:51:47,+0000000000,+0000000000,-00017000,00,,,,,,,,,,,,,2026-01-07 13:46:52,00.05,121,-00.04,00.02,00.01,23.55,38.39,1012.15,-177.4,-179.2,354,,,,,,2026-01-07 13:46:51,10645.0,0.0,296.0,-1.06,0.0,5.78,3.472,26.0,38.0,0.0,719.0,4.2,0.5,36.9,60.8,9453.0,4705.0,1013.0
2026-01-07 13:46:53,2026-01-07 13:46:52,1012.87,+2309,3.76,+2427,2015/10/18,02:51:48,+0000000000,+0000000000,-00017000,00,,,,,,,,,,,,,2026-01-07 13:46:53,00.05,069,-00.05,-00.02,00.01,23.54,38.38,1012.13,-177.5,-179.2,354,,,,,,2026-01-07 13:46:52,10646.0,2.0,3368.0,2.0,0.06,5.795,3.046,26.0,38.0,0.0,718.0,4.2,0.5,37.0,60.8,9453.0,4704.0,1013.0
2026-01-07 13:46:54,2026-01-07 13:46:53,1012.9,+2309,3.76,+2427,2015/10/18,02:51:49,+0000000000,+0000000000,-00017000,00,,,,,,,,,,,,,2026-01-07 13:46:54,00.05,068,-00.05,-00.02,00.02,23.53,38.39,1012.13,-177.4,-179.2,355,,,,,,2026-01-07 13:46:53,10647.0,0.0,296.0,-0.44,0.19,5.791,2.545,26.0,38.0,0.0,721.0,4.2,0.5,37.0,60.8,9453.0,4720.0,1013.0
2026-01-07 13:46:55,2026-01-07 13:46:54,1012.89,+2316,3.76,+2427,2015/10/18,02:51:50,+0000000000,+0000000000,-00017000,00,,,,,,,,,,,,,2026-01-07 13:46:55,00.03,106,-00.03,00.01,00.01,23.53,38.40,1012.13,-177.5,-179.1,353,,,,,,2026-01-07 13:46:54,10648.0,2.01,3368.0,1.75,0.06,5.799,2.116,26.0,38.0,0.0,720.0,4.2,0.5,37.1,60.8,9453.0,4699.0,1013.0
2026-01-07 13:46:56,2026-01-07 13:46:55,1012.88,+2314,3.76,+2427,2015/10/18,02:51:51,+0000000000,+0000000000,-00017000,00,,,,,,,,,,,,,2026-01-07 13:46:56,00.07,105,-00.07,00.02,00.03,23.53,38.41,1012.14,-177.4,-179.2,355,,,,,,2026-01-07 13:46:55,10649.0,0.0,290.0,-0.44,0.88,5.87,2.059,26.0,38.0,0.0,719.0,4.2,0.5,37.5,60.8,9453.0,4708.0,1013.0
2026-01-07 13:46:57,2026-01-07 13:46:56,1012.9,+2309,3.76,+2427,2015/10/18,02:51:52,+0000000000,+0000000000,-00017000,00,,,,,,,,,,,,,2026-01-07 13:46:57,00.04,083,-00.04,-00.00,00.02,23.52,38.38,1012.12,-177.5,-179.2,356,,,,,,2026-01-07 13:46:56,10650.0,1.99,3367.0,1.69,-0.06,5.917,1.994,26.0,38.0,0.0,721.0,4.19,0.5,37.8,60.8,9453.0,4707.0,1013.0
2026-01-07 13:46:58,2026-01-07 13:46:57,1012.85,+2310,3.76,+2427,2015/10/18,02:51:53,+0000000000,+0000000000,-00017000,00,2026-01-07 13:46:58,29.8,309.8,744.4,1.4991,12.2,0000.00000,00000.00000,0.0,0,07/01/26,13:52:28,2026-01-07 13:46:58,00.05,066,-00.04,-00.02,00.03,23.51,38.40,1012.10,-177.5,-179.2,354,,,,,,2026-01-07 13:46:57,10651.0,0.0,300.0,-0.5,0.44,5.918,1.488,26.0,38.0,0.0,1200.0,4.2,0.5,37.8,60.9,9687.0,4708.0,1013.0
2026-01-07 13:46:59,2026-01-07 13:46:58,1012.88,+2309,3.76,+2426,2015/10/18,02:51:54,+0000000000,+0000000000,-00017000,00,,,,,,,,,,,,,2026-01-07 13:46:59,00.07,083,-00.07,-00.01,00.02,23.47,38.43,1012.16,-177.5,-179.2,354,,,,,,2026-01-07 13:46:58,10652.0,1.99,3364.0,2.25,0.38,5.936,0.98,26.0,38.0,0.0,1200.0,4.2,0.5,37.9,60.9,9687.0,4709.0,1013.0
2026-01-07 13:47:00,2026-01-07 13:46:59,1012.9,+2307,3.76,+2427,2015/10/18,02:51:55,+0000000000,+0000000000,-00017000,00,,,,,,,,,,,,,2026-01-07 13:47:00,00.05,097,-00.04,00.00,00.02,23.48,38.39,1012.17,-177.5,-179.2,354,,,,,,2026-01-07 13:46:59,10653.0,0.0,302.0,-0.25,0.63,5.85,0.595,26.0,38.0,0.0,1201.0,4.2,0.5,37.4,60.9,9687.0,4706.0,1013.0
2026-01-07 13:47:01,2026-01-07 13:47:00,1012.93,+2310,3.76,+2426,2015/10/18,02:51:56,+0000000000,+0000000000,-00017000,00,,,,,,,,,,,,,2026-01-07 13:47:01,00.04,093,-00.03,00.00,00.02,23.49,38.38,1012.15,-177.5,-179.2,355,,,,,,2026-01-07 13:47:00,10654.0,1.99,3368.0,1.75,0.31,5.822,0.263,26.0,38.0,0.0,1200.0,4.2,0.5,37.2,60.9,9687.0,4705.0,1013.0
2026-01-07 13:47:02,2026-01-07 13:47:01,1012.87,+2308,3.76,+2427,2015/10/18,02:51:57,+0000000000,+0000000000,-00017000,00,,,,,,,,,,,,,2026-01-07 13:47:02,00.05,099,-00.04,00.01,00.03,23.53,38.41,1012.15,-177.5,-179.2,355,,,,,,2026-01-07 13:47:01,10655.0,0.0,298.0,-0.13,0.44,5.811,0.276,26.0,39.0,0.0,1200.0,4.2,0.5,37.1,60.9,9687.0,4706.0,1013.0
2026-01-07 13:47:03,2026-01-07 13:47:02,1012.9,+2311,3.76,+2427,2015/10/18,02:51:58,+0000000000,+0000000000,-00017000,00,,,,,,,,,,,,,2026-01-07 13:47:03,00.04,101,-00.03,00.01,00.03,23.54,38.40,1012.15,-177.5,-179.2,355,,,,,,2026-01-07 13:47:02,10656.0,1.99,3367.0,1.88,0.19,5.766,0.415,26.0,39.0,0.0,1200.0,4.2,0.501,36.9,60.9,9687.0,4710.0,1013.0
2026-01-07 13:47:04,2026-01-07 13:47:03,1012.88,+2310,3.76,+2426,2015/10/18,02:51:59,+0000000000,+0000000000,-00017000,00,,,,,,,,,,,,,2026-01-07 13:47:04,00.03,086,-00.03,-00.00,00.02,23.55,38.41,1012.15,-177.4,-179.2,354,,,,,,2026-01-07 13:47:03,10657.0,0.0,296.0,-0.38,3.44,5.796,1.171,26.0,39.0,0.0,84.0,4.2,0.5,37.1,63.3,9185.0,4707.0,1013.0
2026-01-07 13:47:05,2026-01-07 13:47:04,1012.91,+2310,3.76,+2426,2015/10/18,02:52:00,+0000000000,+0000000000,-00017000,00,,,,,,,,,,,,,2026-01-07 13:47:05,00.03,035,-00.01,-00.01,00.02,23.56,38.38,1012.13,-177.5,-179.2,355,,,,,,2026-01-07 13:47:04,10658.0,1.99,3368.0,1.5,-1.94,5.759,2.109,26.0,39.0,0.0,98.0,4.2,0.5,36.8,63.3,9185.0,4714.0,1013.0
2026-01-07 13:47:06,2026-01-07 13:47:05,1012.79,+2310,3.76,+2427,2015/10/18,02:52:01,+0000000000,+0000000000,-00017000,00,,,,,,,,,,,,,2026-01-07 13:47:06,00.04,008,-00.00,-00.02,00.04,23.59,38.37,1012.15,-177.5,-179.2,351,,,,,,2026-01-07 13:47:05,10659.0,0.0,298.0,-0.75,2.88,5.752,3.46,26.0,39.0,0.0,100.0,4.2,0.5,36.8,63.3,9185.0,4703.0,1013.0
