merge_timestamp,imet_Timestamp,imet_pressure,imet_temp,imet_rel_hum,imet_hum_temp,imet_date,imet_time,imet_longitude,imet_latitude,imet_altitude,imet_sat,pom_Timestamp,pom_Ozone_ppb,pom_Cell_Temperature_K,pom_Cell_Pressure_torr,pom_Photodiode_Voltage_V,pom_Power_Supply_V,pom_Latitude,pom_Longitude,pom_Altitude_m,pom_GPS_Quality,pom_Date,pom_Time,trisonica_Timestamp,trisonica_Wind_Speed,trisonica_Wind_Direction,trisonica_U_Vector,trisonica_V_Vector,trisonica_W_Vector,trisonica_Temperature,trisonica_Relative_Humidity,trisonica_Pressure,trisonica_Compass_Heading,trisonica_Pitch,trisonica_Roll,spectro_Timestamp,spectro_peak_wavelength,spectro_max_intensity,spectro_total_points,spectro_status,partector2pro_Timestamp,partector2pro_time_since_start_s,partector2pro_charger_diffusion_current_nA,partector2pro_charger_high_voltage_V,partector2pro_electrometer1_mV,partector2pro_electrometer2_mV,partector2pro_electrometer1_amplitude_mV,partector2pro_electrometer2_amplitude_mV,partector2pro_temperature_C,partector2pro_relative_humidity_percent,partector2pro_status,partector2pro_precipitator_voltage_V,partector2pro_battery_voltage_V,partector2pro_flow_lpm,partector2pro_LDSA_um2_cm3,partector2pro_diameter_nm,partector2pro_number_1_cm3,partector2pro_orifice_pressure_Pa,partector2pro_absolute_pressure_mbar
2026-01-07 16:48:29,2026-01-07 16:48:29,1012.91,+2315,4.46,+2431,2015/10/18,05:53:24,+0000000000,+0000000000,-00017000,00,,,,,,,,,,,,,2026-01-07 16:48:29,00.08,074,-00.07,-00.02,00.03,23.68,43.34,1012.09,-177.5,-179.2,357,,,,,,,,,,,,,,,,,,,,,,,,
2026-01-07 16:48:30,2026-01-07 16:48:30,1012.9,+2321,4.46,+2428,2015/10/18,05:53:25,+0000000000,+0000000000,-00017000,00,,,,,,,,,,,,,2026-01-07 16:48:30,00.10,081,-00.09,-00.01,00.04,23.69,43.34,1012.13,-177.5,-179.2,357,,,,,,2026-01-07 16:48:29,21543.0,0.0,298.0,-0.31,0.62,4.658,2.366,25.7,45.0,0.0,719.0,4.2,0.5,29.8,83.5,5777.0,4707.0,1013.0
2026-01-07 16:48:31,2026-01-07 16:48:31,1012.91,+2318,4.46,+2431,2015/10/18,05:53:26,+0000000000,+0000000000,-00017000,00,,,,,,,,,,,,,2026-01-07 16:48:31,00.08,075,-00.07,-00.02,00.03,23.71,43.33,1012.08,-177.5,-179.2,355,,,,,,2026-01-07 16:48:30,21544.0,2.0,3373.0,2.12,0.0,4.641,2.034,25.7,45.0,0.0,720.0,4.2,0.499,29.7,83.5,5777.0,4701.0,1013.0
2026-01-07 16:48:32,2026-01-07 16:48:32,1012.91,+2318,4.46,+2430,2015/10/18,05:53:27,+0000000000,+0000000000,-00017000,00,,,,,,,,,,,,,2026-01-07 16:48:32,00.06,093,-00.05,00.00,00.04,23.75,43.37,1012.11,-177.5,-179.2,358,,,,,,2026-01-07 16:48:31,21545.0,0.0,300.0,-0.5,0.94,4.669,2.084,25.6,45.0,0.0,718.0,4.2,0.5,29.8,83.5,5777.0,4704.0,1013.0
2026-01-07 16:48:33,2026-01-07 16:48:33,1012.94,+2322,4.46,+2431,2015/10/18,05:53:28,+0000000000,+0000000000,-00017000,00,,,,,,,,,,,,,2026-01-07 16:48:33,00.06,098,-00.05,00.01,00.02,23.73,43.33,1012.11,-177.5,-179.2,354,,,,,,2026-01-07 16:48:32,21546.0,2.0,3372.0,2.31,0.12,4.628,2.043,25.6,45.0,0.0,719.0,4.19,0.5,29.6,83.5,5777.0,4705.0,1013.0
2026-01-07 16:48:34,2026-01-07 16:48:34,1012.94,+2319,4.46,+2430,2015/10/18,05:53:29,+0000000000,+0000000000,-00017000,00,,,,,,,,,,,,,2026-01-07 16:48:34,00.05,096,-00.04,00.00,00.03,23.69,43.37,1012.09,-177.5,-179.2,357,,,,,,2026-01-07 16:48:33,21547.0,0.0,301.0,-0.25,0.75,4.667,1.49,25.6,45.0,0.0,1200.0,4.19,0.5,29.8,86.2,5489.0,4706.0,1013.0
2026-01-07 16:48:35,2026-01-07 16:48:35,1012.93,+2319,4.46,+2430,2015/10/18,05:53:30,+0000000000,+0000000000,-00017000,00,,,,,,,,,,,,,2026-01-07 16:48:35,00.03,045,-00.02,-00.02,00.02,23.67,43.33,1012.10,-177.5,-179.3,356,,,,,,2026-01-07 16:48:34,21548.0,1.99,3372.0,1.87,0.0,4.744,1.003,25.7,45.0,0.0,1199.0,4.2,0.5,30.3,86.2,5489.0,4703.0,1013.0
2026-01-07 16:48:36,2026-01-07 16:48:36,1012.91,+2321,4.46,+2431,2015/10/18,05:53:31,+0000000000,+0000000000,-00017000,00,,,,,,,,,,,,,2026-01-07 16:48:36,00.03,092,-00.02,00.00,00.02,23.68,43.30,1012.14,-177.5,-179.2,355,,,,,,2026-01-07 16:48:35,21549.0,0.0,296.0,-0.44,0.19,4.715,0.62,25.7,45.0,0.0,1198.0,4.2,0.5,30.1,86.2,5489.0,4703.0,1013.0
2026-01-07 16:48:37,2026-01-07 16:48:37,1012.93,+2318,4.46,+2430,2015/10/18,05:53:32,+0000000000,+0000000000,-00017000,00,2026-01-07 16:48:37,14.3,309.8,744.9,1.4743,12.2,0000.00000,00000.00000,0.0,0,07/01/26,16:54:08,2026-01-07 16:48:37,00.06,063,-00.04,-00.02,00.04,23.71,43.31,1012.09,-177.5,-179.1,355,,,,,,2026-01-07 16:48:36,21550.0,2.0,3373.0,1.31,0.5,4.706,0.306,25.7,45.0,0.0,1198.0,4.2,0.5,30.1,86.2,5489.0,4710.0,1013.0
2026-01-07 16:48:38,2026-01-07 16:48:38,1012.91,+2322,4.46,+2430,2015/10/18,05:53:33,+0000000000,+0000000000,-00017000,00,,,,,,,,,,,,,2026-01-07 16:48:38,00.06,098,-00.04,00.01,00.04,23.78,43.33,1012.07,-177.5,-179.2,357,,,,,,2026-01-07 16:48:37,21551.0,0.0,298.0,-0.5,0.31,4.661,0.436,25.7,45.0,0.0,1200.0,4.2,0.5,29.8,86.2,5489.0,4702.0,1013.0
2026-01-07 16:48:39,2026-01-07 16:48:39,1012.91,+2323,4.46,+2430,2015/10/18,05:53:34,+0000000000,+0000000000,-00017000,00,,,,,,,,,,,,,2026-01-07 16:48:39,00.07,090,-00.05,-00.00,00.04,23.78,43.33,1012.08,-177.5,-179.2,353,,,,,,2026-01-07 16:48:38,21552.0,2.01,3372.0,1.75,0.0,4.617,0.538,25.7,45.0,0.0,1196.0,4.2,0.5,29.5,86.2,5489.0,4708.0,1013.0
2026-01-07 16:48:40,2026-01-07 16:48:40,1012.93,+2321,4.46,+2428,2015/10/18,05:53:35,+0000000000,+0000000000,-00017000,00,,,,,,,,,,,,,2026-01-07 16:48:40,00.06,073,-00.04,-00.01,00.04,23.68,43.33,1012.09,-177.5,-179.2,358,,,,,,2026-01-07 16:48:39,21553.0,0.0,298.0,-0.12,2.44,4.635,1.156,25.7,45.0,0.0,82.0,4.2,0.5,29.6,85.7,5474.0,4698.0,1013.0
2026-01-07 16:48:41,2026-01-07 16:48:41,1012.87,+2319,4.46,+2431,2015/10/18,05:53:36,+0000000000,+0000000000,-00017000,00,,,,,,,,,,,,,2026-01-07 16:48:41,00.03,084,-00.02,-00.00,00.01,23.65,43.35,1012.10,-177.5,-179.2,355,,,,,,2026-01-07 16:48:40,21554.0,1.99,3372.0,1.81,-1.37,4.669,1.83,25.6,45.0,0.0,99.0,4.19,0.499,29.8,85.7,5474.0,4698.0,1013.0
2026-01-07 16:48:42,2026-01-07 16:48:42,1012.93,+2318,4.46,+2430,2015/10/18,05:53:37,+0000000000,+0000000000,-00017000,00,,,,,,,,,,,,,2026-01-07 16:48:42,00.03,148,-00.01,00.02,00.01,23.74,43.30,1012.08,-177.5,-179.2,356,,,,,,2026-01-07 16:48:41,21555.0,0.0,296.0,-0.37,3.06,4.665,2.916,25.6,45.0,0.0,99.0,4.2,0.5,29.8,85.7,5474.0,4708.0,1013.0
2026-01-07 16:48:43,2026-01-07 16:48:43,1012.93,+2318,4.46,+2430,2015/10/18,05:53:38,+0000000000,+0000000000,-00017000,00,,,,,,,,,,,,,2026-01-07 16:48:43,00.02,262,00.00,00.00,00.02,23.74,43.27,1012.09,-177.5,-179.2,357,,,,,,2026-01-07 16:48:42,21556.0,1.99,3373.0,1.75,-1.62,4.689,3.811,25.6,45.0,0.0,99.0,4.2,0.5,30.0,85.7,5474.0,4706.0,1013.0
2026-01-07 16:48:44,2026-01-07 16:48:44,1012.92,+2319,4.46,+2430,2015/10/18,05:53:39,+0000000000,+0000000000,-00017000,00,,,,,,,,,,,,,2026-01-07 16:48:44,00.05,099,-00.04,00.01,00.04,23.72,43.32,1012.11,-177.5,-179.2,355,,,,,,2026-01-07 16:48:43,21557.0,0.0,297.0,-0.31,2.94,4.683,4.066,25.7,46.0,0.0,98.0,4.2,0.5,29.9,85.7,5474.0,4714.0,1013.0
2026-01-07 16:48:45,2026-01-07 16:48:45,1012.87,+2322,4.46,+2431,2015/10/18,05:53:40,+0000000000,+0000000000,-00017000,00,,,,,,,,,,,,,2026-01-07 16:48:45,00.04,125,-00.03,00.02,00.02,23.72,43.29,1012.08,-177.5,-179.2,358,,,,,,2026-01-07 16:48:44,21558.0,1.99,3369.0,2.25,-2.12,4.651,4.261,25.7,46.0,0.0,100.0,4.2,0.5,29.7,85.7,5474.0,4704.0,1013.0
2026-01-07 16:48:46,2026-01-07 16:48:46,1012.87,+2319,4.46,+2430,2015/10/18,05:53:41,+0000000000,+0000000000,-00017000,00,,,,,,,,,,,,,2026-01-07 16:48:46,00.04,119,-00.03,00.01,00.03,23.71,43.31,1012.07,-177.5,-179.2,358,,,,,,2026-01-07 16:48:45,21559.0,0.0,300.0,-0.06,0.94,4.746,4.026,25.7,46.0,0.0,359.0,4.2,0.5,30.3,85.0,5518.0,4717.0,1013.0
2026-01-07 16:48:47,2026-01-07 16:48:47,1012.87,+2320,4.46,+2430,2015/10/18,05:53:42,+0000000000,+0000000000,-00017000,00,2026-01-07 16:48:47,13.9,309.8,744.1,1.4744,12.2,0000.00000,00000.00000,0.0,0,07/01/26,16:54:18,2026-01-07 16:48:47,00.04,123,-00.03,00.02,00.02,23.76,43.31,1012.07,-177.5,-179.2,358,,,,,,2026-01-07 16:48:46,21560.0,2.0,3372.0,1.75,-1.37,4.709,3.944,25.6,45.0,0.0,360.0,4.2,0.5,30.1,85.0,5518.0,4702.0,1013.0
2026-01-07 16:48:48,2026-01-07 16:48:48,1012.93,+2325,4.46,+2430,2015/10/18,05:53:43,+0000000000,+0000000000,-00017000,00,,,,,,,,,,,,,2026-01-07 16:48:48,00.05,089,-00.03,-00.00,00.03,23.81,43.33,1012.11,-177.5,-179.2,356,,,,,,2026-01-07 16:48:47,21561.0,0.0,302.0,-0.75,1.19,4.696,3.745,25.6,45.0,0.0,359.0,4.2,0.5,30.0,85.0,5518.0,4706.0,1013.0
2026-01-07 16:48:49,2026-01-07 16:48:49,1012.91,+2319,4.46,+2431,2015/10/18,05:53:44,+0000000000,+0000000000,-00017000,00,,,,,,,,,,,,,2026-01-07 16:48:49,00.05,076,-00.04,-00.01,00.03,23.82,43.29,1012.11,-177.4,-179.2,355,,,,,,2026-01-07 16:48:48,21562.0,1.99,3372.0,1.81,-1.31,4.766,3.63,25.6,45.0,0.0,359.0,4.2,0.5,30.5,85.0,5518.0,4711.0,1013.0
2026-01-07 16:48:50,2026-01-07 16:48:50,1012.94,+2321,4.46,+2431,2015/10/18,05:53:45,+0000000000,+0000000000,-00017000,00,,,,,,,,,,,,,2026-01-07 16:48:50,00.07,067,-00.06,-00.02,00.04,23.70,43.29,1012.10,-177.5,-179.2,356,,,,,,2026-01-07 16:48:49,21563.0,0.0,296.0,-0.06,1.37,4.675,3.702,25.7,45.0,0.0,359.0,4.18,0.5,29.9,85.0,5518.0,4704.0,1013.0
2026-01-07 16:48:51,2026-01-07 16:48:51,1012.92,+2322,4.46,+2431,2015/10/18,05:53:46,+0000000000,+0000000000,-00017000,00,,,,,,,,,,,,,2026-01-07 16:48:51,00.07,068,-00.06,-00.02,00.03,23.64,43.34,1012.03,-177.5,-179.2,355,,,,,,2026-01-07 16:48:50,21564.0,1.99,3372.0,1.81,-0.69,4.717,3.613,25.7,45.0,0.0,360.0,4.2,0.5,30.1,85.0,5518.0,4690.0,1013.0
2026-01-07 16:48:52,2026-01-07 16:48:52,1012.89,+2321,4.46,+2431,2015/10/18,05:53:47,+0000000000,+0000000000,-00017000,00,,,,,,,,,,,,,2026-01-07 16:48:52,00.07,063,-00.06,-00.03,00.02,23.60,43.29,1012.09,-177.5,-179.2,358,,,,,,2026-01-07 16:48:51,21565.0,0.0,298.0,-0.25,-0.12,4.733,3.232,25.7,45.0,0.0,719.0,4.2,0.5,30.2,85.6,5538.0,4701.0,1013.0
2026-01-07 16:48:53,2026-01-07 16:48:53,1012.89,+2319,4.46,+2431,2015/10/18,05:53:48,+0000000000,+0000000000,-00017000,00,,,,,,,,,,,,,2026-01-07 16:48:53,00.06,088,-00.05,-00.00,00.03,23.62,43.31,1012.11,-177.5,-179.2,357,,,,,,2026-01-07 16:48:52,21566.0,2.0,3372.0,1.69,-0.44,4.7,2.818,25.6,45.0,0.0,720.0,4.2,0.5,30.0,85.6,5538.0,4703.0,1013.0
2026-01-07 16:48:54,2026-01-07 16:48:54,1012.91,+2319,4.46,+2430,2015/10/18,05:53:49,+0000000000,+0000000000,-00017000,00,,,,,,,,,,,,,2026-01-07 16:48:54,00.07,056,-00.05,-00.03,00.03,23.60,43.30,1012.09,-177.5,-179.1,356,,,,,,2026-01-07 16:48:53,21567.0,0.0,297.0,0.12,0.31,4.72,2.356,25.6,45.0,0.0,720.0,4.2,0.5,30.2,85.6,5538.0,4749.0,1013.0
2026-01-07 16:48:55,2026-01-07 16:48:55,1012.91,+2322,4.46,+2431,2015/10/18,05:53:50,+0000000000,+0000000000,-00017000,00,,,,,,,,,,,,,2026-01-07 16:48:55,00.07,072,-00.06,-00.02,00.03,23.61,43.32,1012.09,-177.5,-179.2,356,,,,,,2026-01-07 16:48:54,21568.0,1.98,3375.0,1.5,0.5,4.696,1.931,25.6,45.0,0.0,720.0,4.2,0.5,30.0,85.6,5538.0,4700.0,1013.0
2026-01-07 16:48:56,2026-01-07 16:48:56,1012.92,+2322,4.46,+2430,2015/10/18,05:53:51,+0000000000,+0000000000,-00017000,00,,,,,,,,,,,,,2026-01-07 16:48:56,00.05,090,-00.04,00.00,00.03,23.69,43.31,1012.08,-177.5,-179.2,355,,,,,,2026-01-07 16:48:55,21569.0,0.0,300.0,-0.06,0.12,4.724,1.917,25.7,45.0,0.0,719.0,4.2,0.5,30.2,85.6,5538.0,4706.0,1013.0
2026-01-07 16:48:57,2026-01-07 16:48:57,1012.92,+2322,4.46,+2430,2015/10/18,05:53:52,+0000000000,+0000000000,-00017000,00,2026-01-07 16:48:57,11.6,309.8,744.6,1.4746,12.2,0000.00000,00000.00000,0.0,0,07/01/26,16:54:28,2026-01-07 16:48:57,00.05,063,-00.04,-00.02,00.03,23.71,43.29,1012.10,-177.5,-179.1,359,,,,,,2026-01-07 16:48:56,21570.0,2.02,3369.0,2.12,-0.06,4.727,1.939,25.7,45.0,0.0,721.0,4.2,0.5,30.2,85.6,5538.0,4707.0,1013.0
2026-01-07 16:48:58,2026-01-07 16:48:58,1012.9,+2315,4.46,+2430,2015/10/18,05:53:53,+0000000000,+0000000000,-00017000,00,,,,,,,,,,,,,2026-01-07 16:48:58,00.06,106,-00.05,00.01,00.04,23.72,43.28,1012.09,-177.5,-179.2,353,,,,,,2026-01-07 16:48:57,21571.0,0.0,296.0,-0.44,0.25,4.745,1.472,25.7,45.0,0.0,1199.0,4.2,0.5,30.3,83.8,5770.0,4703.0,1013.0
2026-01-07 16:48:59,2026-01-07 16:48:59,1012.92,+2319,4.46,+2431,2015/10/18,05:53:54,+0000000000,+0000000000,-00017000,00,,,,,,,,,,,,,2026-01-07 16:48:59,00.07,063,-00.05,-00.03,00.04,23.75,43.29,1012.10,-177.5,-179.2,356,,,,,,2026-01-07 16:48:58,21572.0,2.0,3372.0,1.5,0.19,4.785,1.056,25.7,45.0,0.0,1200.0,4.2,0.499,30.6,83.8,5770.0,4717.0,1013.0
2026-01-07 16:49:00,2026-01-07 16:49:00,1012.9,+2318,4.45,+2431,2015/10/18,05:53:55,+0000000000,+0000000000,-00017000,00,,,,,,,,,,,,,2026-01-07 16:49:00,00.05,091,-00.04,00.00,00.03,23.77,43.24,1012.10,-177.5,-179.2,355,,,,,,2026-01-07 16:48:59,21573.0,0.0,298.0,0.0,0.19,4.77,0.651,25.7,45.0,0.0,1199.0,4.18,0.5,30.5,83.8,5770.0,4704.0,1013.0
2026-01-07 16:49:01,2026-01-07 16:49:01,1012.93,+2319,4.45,+2430,2015/10/18,05:53:56,+0000000000,+0000000000,-00017000,00,,,,,,,,,,,,,2026-01-07 16:49:01,00.04,108,-00.04,00.01,00.02,23.74,43.30,1012.12,-177.5,-179.2,356,,,,,,2026-01-07 16:49:00,21574.0,1.99,3372.0,1.81,0.69,4.801,0.228,25.7,45.0,0.0,1199.0,4.19,0.5,30.7,83.8,5770.0,4700.0,1013.0
2026-01-07 16:49:02,2026-01-07 16:49:02,1012.92,+2320,4.45,+2431,2015/10/18,05:53:57,+0000000000,+0000000000,-00017000,00,,,,,,,,,,,,,2026-01-07 16:49:02,00.05,071,-00.03,-00.01,00.03,23.72,43.28,1012.08,-177.5,-179.2,355,,,,,,2026-01-07 16:49:01,21575.0,0.0,296.0,-0.12,0.31,4.819,0.296,25.7,45.0,0.0,1199.0,4.2,0.5,30.8,83.8,5770.0,4704.0,1013.0
2026-01-07 16:49:03,2026-01-07 16:49:03,1012.89,+2319,4.45,+2431,2015/10/18,05:53:58,+0000000000,+0000000000,-00017000,00,,,,,,,,,,,,,2026-01-07 16:49:03,00.04,048,-00.02,-00.02,00.02,23.70,43.32,1012.09,-177.5,-179.2,357,,,,,,2026-01-07 16:49:02,21576.0,2.0,3372.0,1.81,-0.19,4.788,0.354,25.7,45.0,0.0,1200.0,4.2,0.5,30.6,83.8,5770.0,4707.0,1013.0
2026-01-07 16:49:04,2026-01-07 16:49:04,1012.96,+2318,4.45,+2431,2015/10/18,05:53:59,+0000000000,+0000000000,-00017000,00,,,,,,,,,,,,,2026-01-07 16:49:04,00.05,104,-00.04,00.01,00.02,23.70,43.33,1012.11,-177.5,-179.2,358,,,,,,2026-01-07 16:49:03,21577.0,0.0,296.0,0.19,2.19,4.763,1.073,25.7,45.0,0.0,82.0,4.2,0.498,30.4,83.7,5928.0,4687.0,1013.0
2026-01-07 16:49:05,2026-01-07 16:49:05,1012.96,+2319,4.45,+2430,2015/10/18,05:54:00,+0000000000,+0000000000,-00017000,00,,,,,,,,,,,,,2026-01-07 16:49:05,00.05,078,-00.03,-00.01,00.03,23.69,43.25,1012.10,-177.5,-179.2,355,,,,,,2026-01-07 16:49:04,21578.0,2.0,3371.0,2.06,-1.56,4.734,1.774,25.7,46.0,0.0,99.0,4.2,0.5,30.3,83.7,5928.0,4708.0,1013.0
2026-01-07 16:49:06,2026-01-07 16:49:06,1012.93,+2319,4.45,+2431,2015/10/18,05:54:01,+0000000000,+0000000000,-00017000,00,,,,,,,,,,,,,2026-01-07 16:49:06,00.04,096,-00.03,00.00,00.02,23.67,43.28,1012.13,-177.5,-179.2,355,,,,,,2026-01-07 16:49:05,21579.0,0.0,298.0,-0.37,2.56,4.7,2.879,25.7,46.0,0.0,97.0,4.2,0.5,30.0,83.7,5928.0,4704.0,1013.0
2026-01-07 16:49:07,2026-01-07 16:49:07,1012.92,+2319,4.45,+2430,2015/10/18,05:54:02,+0000000000,+0000000000,-00017000,00,2026-01-07 16:49:07,12.4,309.8,745.1,1.4747,12.2,0000.00000,00000.00000,0.0,0,07/01/26,16:54:38,2026-01-07 16:49:07,00.03,135,-00.01,00.01,00.03,23.68,43.27,1012.10,-177.5,-179.2,357,,,,,,2026-01-07 16:49:06,21580.0,1.99,3373.0,2.31,-2.12,4.701,3.792,25.7,46.0,0.0,99.0,4.2,0.5,30.0,83.7,5928.0,4701.0,1013.0
2026-01-07 16:49:08,2026-01-07 16:49:08,1012.92,+2321,4.45,+2431,2015/10/18,05:54:03,+0000000000,+0000000000,-00017000,00,,,,,,,,,,,,,2026-01-07 16:49:08,00.05,083,-00.03,-00.00,00.03,23.67,43.31,1012.09,-177.5,-179.2,354,,,,,,2026-01-07 16:49:07,21581.0,0.0,300.0,-0.37,3.0,4.723,4.099,25.7,45.0,0.0,99.0,4.2,0.5,30.2,83.7,5928.0,4706.0,1013.0
2026-01-07 16:49:09,2026-01-07 16:49:09,1012.92,+2322,4.45,+2431,2015/10/18,05:54:04,+0000000000,+0000000000,-00017000,00,,,,,,,,,,,,,2026-01-07 16:49:09,00.04,087,-00.02,-00.00,00.03,23.66,43.27,1012.12,-177.5,-179.2,356,,,,,,2026-01-07 16:49:08,21582.0,1.99,3376.0,1.12,-1.87,4.766,4.361,25.7,45.0,0.0,99.0,4.2,0.499,30.5,83.7,5928.0,4688.0,1013.0
2026-01-07 16:49:10,2026-01-07 16:49:10,1012.92,+2319,4.45,+2431,2015/10/18,05:54:05,+0000000000,+0000000000,-00017000,00,,,,,,,,,,,,,2026-01-07 16:49:10,00.04,100,-00.04,00.01,00.01,23.67,43.28,1012.12,-177.5,-179.2,356,,,,,,2026-01-07 16:49:09,21583.0,0.0,298.0,-0.44,0.56,4.769,4.118,25.7,45.0,0.0,359.0,4.2,0.5,30.5,75.5,6147.0,4705.0,1013.0
2026-01-07 16:49:11,2026-01-07 16:49:11,1012.9,+2321,4.45,+2433,2015/10/18,05:54:06,+0000000000,+0000000000,-00017000,00,,,,,,,,,,,,,2026-01-07 16:49:11,00.04,074,-00.03,-00.01,00.03,23.66,43.26,1012.09,-177.5,-179.2,355,,,,,,2026-01-07 16:49:10,21584.0,1.99,3373.0,2.06,-0.94,4.73,4.048,25.6,46.0,0.0,360.0,4.19,0.5,30.2,75.5,6147.0,4702.0,1013.0
2026-01-07 16:49:12,2026-01-07 16:49:12,1012.89,+2319,4.45,+2431,2015/10/18,05:54:07,+0000000000,+0000000000,-00017000,00,,,,,,,,,,,,,2026-01-07 16:49:12,00.04,091,-00.04,00.00,00.02,23.65,43.31,1012.11,-177.5,-179.2,356,,,,,,2026-01-07 16:49:11,21585.0,0.0,297.0,-0.69,0.87,4.748,3.858,25.6,46.0,0.0,360.0,4.2,0.5,30.3,75.5,6147.0,4698.0,1013.0
2026-01-07 16:49:13,2026-01-07 16:49:13,1012.94,+2324,4.45,+2430,2015/10/18,05:54:08,+0000000000,+0000000000,-00017000,00,,,,,,,,,,,,,2026-01-07 16:49:13,00.04,092,-00.03,00.00,00.03,23.67,43.29,1012.09,-177.5,-179.2,354,,,,,,2026-01-07 16:49:12,21586.0,2.0,3373.0,1.44,-0.87,4.68,3.672,25.6,46.0,0.0,358.0,4.18,0.5,29.9,75.5,6147.0,4699.0,1013.0
2026-01-07 16:49:14,2026-01-07 16:49:14,1012.96,+2319,4.45,+2431,2015/10/18,05:54:09,+0000000000,+0000000000,-00017000,00,,,,,,,,,,,,,2026-01-07 16:49:14,00.04,097,-00.03,00.00,00.03,23.69,43.27,1012.11,-177.5,-179.2,354,,,,,,2026-01-07 16:49:13,21587.0,0.0,298.0,-0.25,0.81,4.738,3.688,25.6,45.0,0.0,360.0,4.19,0.499,30.3,75.5,6147.0,4653.0,1013.0
2026-01-07 16:49:15,2026-01-07 16:49:15,1012.97,+2321,4.45,+2431,2015/10/18,05:54:10,+0000000000,+0000000000,-00017000,00,,,,,,,,,,,,,2026-01-07 16:49:15,00.07,080,-00.06,-00.01,00.03,23.69,43.27,1012.10,-177.5,-179.2,360,,,,,,2026-01-07 16:49:14,21588.0,1.98,3371.0,1.75,-0.94,4.762,3.66,25.6,45.0,0.0,360.0,4.2,0.5,30.4,75.5,6147.0,4701.0,1013.0
2026-01-07 16:49:16,2026-01-07 16:49:16,1012.91,+2320,4.45,+2431,2015/10/18,05:54:11,+0000000000,+0000000000,-00017000,00,,,,,,,,,,,,,2026-01-07 16:49:16,00.04,066,-00.01,-00.01,00.03,23.71,43.27,1012.13,-177.5,-179.2,355,,,,,,2026-01-07 16:49:15,21589.0,0.0,298.0,-0.31,0.44,4.723,3.246,25.6,45.0,0.0,719.0,4.19,0.5,30.2,80.8,5928.0,4697.0,1013.0
2026-01-07 16:49:17,2026-01-07 16:49:17,1012.93,+2321,4.45,+2431,2015/10/18,05:54:12,+0000000000,+0000000000,-00017000,00,2026-01-07 16:49:17,13.2,309.8,745.6,1.4749,12.2,0000.00000,00000.00000,0.0,0,07/01/26,16:54:48,2026-01-07 16:49:17,00.06,076,-00.04,-00.01,00.04,23.74,43.28,1012.12,-177.5,-179.2,356,,,,,,2026-01-07 16:49:16,21590.0,2.0,3372.0,2.31,0.0,4.768,2.892,25.6,45.0,0.0,720.0,4.2,0.499,30.5,80.8,5928.0,4685.0,1013.0
2026-01-07 16:49:18,2026-01-07 16:49:18,1012.94,+2322,4.44,+2431,2015/10/18,05:54:13,+0000000000,+0000000000,-00017000,00,,,,,,,,,,,,,2026-01-07 16:49:18,00.05,062,-00.03,-00.02,00.04,23.70,43.26,1012.11,-177.5,-179.2,358,,,,,,2026-01-07 16:49:17,21591.0,0.0,301.0,-0.31,-0.12,4.685,2.458,25.6,45.0,0.0,718.0,4.19,0.5,29.9,80.8,5928.0,4702.0,1013.0
2026-01-07 16:49:19,2026-01-07 16:49:19,1012.9,+2319,4.44,+2431,2015/10/18,05:54:14,+0000000000,+0000000000,-00017000,00,,,,,,,,,,,,,2026-01-07 16:49:19,00.05,063,-00.03,-00.02,00.03,23.69,43.25,1012.10,-177.5,-179.2,354,,,,,,2026-01-07 16:49:18,21592.0,1.98,3373.0,1.62,-0.12,4.712,1.996,25.6,45.0,0.0,720.0,4.2,0.5,30.1,80.8,5928.0,4703.0,1013.0
2026-01-07 16:49:20,2026-01-07 16:49:20,1012.91,+2319,4.45,+2431,2015/10/18,05:54:15,+0000000000,+0000000000,-00017000,00,,,,,,,,,,,,,2026-01-07 16:49:20,00.03,322,00.00,-00.00,00.03,23.75,43.24,1012.10,-177.5,-179.1,354,,,,,,2026-01-07 16:49:19,21593.0,0.0,300.0,0.06,0.5,4.715,1.973,25.6,45.0,0.0,720.0,4.2,0.5,30.1,80.8,5928.0,4705.0,1013.0
2026-01-07 16:49:21,2026-01-07 16:49:21,1012.92,+2319,4.45,+2431,2015/10/18,05:54:16,+0000000000,+0000000000,-00017000,00,,,,,,,,,,,,,2026-01-07 16:49:21,00.04,078,-00.01,-00.00,00.04,23.76,43.25,1012.13,-177.5,-179.2,357,,,,,,2026-01-07 16:49:20,21594.0,1.99,3372.0,1.87,-0.06,4.689,1.932,25.6,45.0,0.0,722.0,4.2,0.5,30.0,80.8,5928.0,4703.0,1013.0
2026-01-07 16:49:22,2026-01-07 16:49:22,1012.88,+2322,4.45,+2431,2015/10/18,05:54:17,+0000000000,+0000000000,-00017000,00,,,,,,,,,,,,,2026-01-07 16:49:22,00.04,064,-00.03,-00.01,00.03,23.75,43.30,1012.09,-177.5,-179.2,357,,,,,,2026-01-07 16:49:21,21595.0,0.0,297.0,-0.19,0.56,4.706,1.435,25.6,45.0,0.0,1199.0,4.19,0.5,30.1,85.3,5723.0,4708.0,1013.0
2026-01-07 16:49:23,2026-01-07 16:49:23,1012.91,+2319,4.45,+2431,2015/10/18,05:54:18,+0000000000,+0000000000,-00017000,00,,,,,,,,,,,,,2026-01-07 16:49:23,00.07,080,-00.05,-00.01,00.04,23.76,43.20,1012.11,-177.5,-179.2,354,,,,,,2026-01-07 16:49:22,21596.0,1.99,3376.0,1.69,0.06,4.675,0.989,25.7,45.0,0.0,1199.0,4.2,0.5,29.9,85.3,5723.0,4703.0,1013.0
2026-01-07 16:49:24,2026-01-07 16:49:24,1012.93,+2320,4.45,+2433,2015/10/18,05:54:19,+0000000000,+0000000000,-00017000,00,,,,,,,,,,,,,2026-01-07 16:49:24,00.07,071,-00.05,-00.02,00.03,23.73,43.23,1012.11,-177.5,-179.2,357,,,,,,2026-01-07 16:49:23,21597.0,0.0,297.0,-0.19,0.12,4.681,0.586,25.7,45.0,0.0,1200.0,4.2,0.5,29.9,85.3,5723.0,4703.0,1013.0
2026-01-07 16:49:25,2026-01-07 16:49:25,1012.94,+2321,4.45,+2431,2015/10/18,05:54:20,+0000000000,+0000000000,-00017000,00,,,,,,,,,,,,,2026-01-07 16:49:25,00.05,056,-00.03,-00.02,00.02,23.67,43.24,1012.12,-177.5,-179.2,355,,,,,,2026-01-07 16:49:24,21598.0,1.99,3375.0,1.87,0.06,4.712,0.192,25.7,45.0,0.0,1200.0,4.2,0.5,30.1,85.3,5723.0,4700.0,1013.0
2026-01-07 16:49:26,2026-01-07 16:49:26,1012.92,+2321,4.45,+2433,2015/10/18,05:54:21,+0000000000,+0000000000,-00017000,00,,,,,,,,,,,,,2026-01-07 16:49:26,00.08,062,-00.07,-00.04,00.03,23.66,43.23,1012.07,-177.5,-179.2,355,,,,,,2026-01-07 16:49:25,21599.0,0.0,293.0,-0.12,0.31,4.715,0.347,25.6,45.0,0.0,1199.0,4.2,0.5,30.1,85.3,5723.0,4700.0,1013.0
2026-01-07 16:49:27,2026-01-07 16:49:27,1012.91,+2321,4.45,+2431,2015/10/18,05:54:22,+0000000000,+0000000000,-00017000,00,2026-01-07 16:49:27,11.7,309.9,745.2,1.4750,12.2,0000.00000,00000.00000,0.0,0,07/01/26,16:54:58,2026-01-07 16:49:27,00.06,060,-00.05,-00.03,00.02,23.71,43.23,1012.11,-177.5,-179.1,357,,,,,,2026-01-07 16:49:26,21600.0,2.01,3372.0,2.0,0.44,4.681,0.497,25.6,45.0,0.0,1199.0,4.2,0.499,29.9,85.3,5723.0,4704.0,1013.0
2026-01-07 16:49:28,2026-01-07 16:49:28,1012.91,+2319,4.44,+2433,2015/10/18,05:54:23,+0000000000,+0000000000,-00017000,00,,,,,,,,,,,,,2026-01-07 16:49:28,00.06,047,-00.04,-00.04,00.03,23.71,43.24,1012.13,-177.5,-179.2,354,,,,,,2026-01-07 16:49:27,21601.0,0.0,300.0,-0.19,2.69,4.684,1.161,25.6,45.0,0.0,82.0,4.2,0.499,29.9,84.6,5679.0,4697.0,1013.0
2026-01-07 16:49:29,2026-01-07 16:49:29,1012.91,+2322,4.45,+2431,2015/10/18,05:54:24,+0000000000,+0000000000,-00017000,00,,,,,,,,,,,,,2026-01-07 16:49:29,00.07,075,-00.06,-00.02,00.03,23.69,43.26,1012.12,-177.5,-179.1,358,,,,,,2026-01-07 16:49:28,21602.0,1.98,3373.0,1.5,-1.44,4.661,1.899,25.7,45.0,0.0,98.0,4.2,0.5,29.8,84.6,5679.0,4704.0,1013.0
2026-01-07 16:49:30,2026-01-07 16:49:30,1012.95,+2320,4.45,+2431,2015/10/18,05:54:25,+0000000000,+0000000000,-00017000,00,,,,,,,,,,,,,2026-01-07 16:49:30,00.05,064,-00.05,-00.02,00.02,23.65,43.22,1012.12,-177.5,-179.1,355,,,,,,2026-01-07 16:49:29,21603.0,0.0,296.0,-0.19,3.0,4.65,3.033,25.7,45.0,0.0,98.0,4.2,0.5,29.7,84.6,5679.0,4706.0,1013.0
2026-01-07 16:49:31,2026-01-07 16:49:31,1012.92,+2318,4.44,+2431,2015/10/18,05:54:26,+0000000000,+0000000000,-00017000,00,,,,,,,,,,,,,2026-01-07 16:49:31,00.07,078,-00.06,-00.01,00.04,23.72,43.25,1012.12,-177.5,-179.2,354,,,,,,2026-01-07 16:49:30,21604.0,1.99,3371.0,1.87,-2.06,4.661,3.977,25.7,45.0,0.0,99.0,4.2,0.499,29.8,84.6,5679.0,4700.0,1013.0
2026-01-07 16:49:32,2026-01-07 16:49:32,1012.92,+2319,4.45,+2433,2015/10/18,05:54:27,+0000000000,+0000000000,-00017000,00,,,,,,,,,,,,,2026-01-07 16:49:32,00.06,053,-00.04,-00.03,00.02,23.75,43.23,1012.13,-177.5,-179.2,355,,,,,,2026-01-07 16:49:32,21606.0,1.99,3371.0,2.0,-1.69,4.659,4.362,25.7,45.0,0.0,99.0,4.2,0.499,29.8,84.6,5679.0,4642.0,1013.0
2026-01-07 16:49:33,2026-01-07 16:49:33,1012.93,+2322,4.45,+2431,2015/10/18,05:54:28,+0000000000,+0000000000,-00017000,00,,,,,,,,,,,,,2026-01-07 16:49:33,00.08,055,-00.06,-00.04,00.03,23.69,43.23,1012.12,-177.4,-179.2,356,,,,,,2026-01-07 16:49:33,21607.0,0.0,300.0,-0.44,0.81,4.658,4.09,25.7,45.0,0.0,359.0,4.2,0.5,29.8,85.5,5737.0,4701.0,1013.0
2026-01-07 16:49:34,2026-01-07 16:49:34,1012.93,+2321,4.45,+2433,2015/10/18,05:54:29,+0000000000,+0000000000,-00017000,00,,,,,,,,,,,,,2026-01-07 16:49:34,00.07,061,-00.06,-00.03,00.03,23.67,43.21,1012.09,-177.5,-179.2,357,,,,,,2026-01-07 16:49:34,21608.0,2.01,3375.0,1.75,-0.75,4.695,3.91,25.7,45.0,0.0,359.0,4.2,0.5,30.0,85.5,5737.0,4707.0,1013.0
2026-01-07 16:49:35,2026-01-07 16:49:35,1012.88,+2321,4.45,+2433,2015/10/18,05:54:30,+0000000000,+0000000000,-00017000,00,,,,,,,,,,,,,2026-01-07 16:49:35,00.06,048,-00.04,-00.04,00.01,23.72,43.22,1012.10,-177.5,-179.2,354,,,,,,2026-01-07 16:49:35,21609.0,0.0,298.0,-1.19,1.31,4.722,3.748,25.7,45.0,0.0,360.0,4.2,0.5,30.2,85.5,5737.0,4702.0,1013.0
2026-01-07 16:49:36,2026-01-07 16:49:36,1012.87,+2321,4.44,+2433,2015/10/18,05:54:31,+0000000000,+0000000000,-00017000,00,,,,,,,,,,,,,2026-01-07 16:49:36,00.06,058,-00.05,-00.03,00.02,23.72,43.22,1012.08,-177.5,-179.2,356,,,,,,2026-01-07 16:49:36,21610.0,2.0,3373.0,1.69,-1.19,4.681,3.588,25.7,45.0,0.0,360.0,4.2,0.5,29.9,85.5,5737.0,4702.0,1013.0
2026-01-07 16:49:37,2026-01-07 16:49:37,1012.88,+2322,4.44,+2433,2015/10/18,05:54:32,+0000000000,+0000000000,-00017000,00,2026-01-07 16:49:37,11.7,309.8,744.4,1.4752,12.2,0000.00000,00000.00000,0.0,0,07/01/26,16:55:08,2026-01-07 16:49:37,00.05,067,-00.03,-00.01,00.03,23.72,43.22,1012.09,-177.5,-179.2,355,,,,,,2026-01-07 16:49:37,21611.0,0.0,298.0,-0.37,1.0,4.794,3.571,25.6,45.0,0.0,359.0,4.2,0.5,30.6,85.5,5737.0,4700.0,1013.0
2026-01-07 16:49:38,2026-01-07 16:49:38,1012.92,+2318,4.44,+2431,2015/10/18,05:54:33,+0000000000,+0000000000,-00017000,00,,,,,,,,,,,,,2026-01-07 16:49:38,00.05,050,-00.03,-00.03,00.03,23.71,43.22,1012.10,-177.5,-179.2,355,,,,,,2026-01-07 16:49:38,21612.0,2.0,3373.0,1.62,-0.69,4.814,3.475,25.6,45.0,0.0,360.0,4.19,0.5,30.8,85.5,5737.0,4706.0,1013.0
2026-01-07 16:49:39,2026-01-07 16:49:39,1012.92,+2321,4.44,+2431,2015/10/18,05:54:34,+0000000000,+0000000000,-00017000,00,,,,,,,,,,,,,2026-01-07 16:49:39,00.05,053,-00.04,-00.03,00.02,23.75,43.23,1012.10,-177.5,-179.1,351,,,,,,2026-01-07 16:49:39,21613.0,0.0,298.0,-0.06,0.0,4.778,3.04,25.6,45.0,0.0,720.0,4.19,0.5,30.5,75.5,6404.0,4705.0,1013.0
2026-01-07 16:49:40,2026-01-07 16:49:40,1012.9,+2320,4.44,+2431,2015/10/18,05:54:35,+0000000000,+0000000000,-00017000,00,,,,,,,,,,,,,2026-01-07 16:49:40,00.06,029,-00.02,-00.04,00.03,23.75,43.26,1012.12,-177.5,-179.2,356,,,,,,2026-01-07 16:49:40,21614.0,1.98,3371.0,2.12,-0.19,4.773,2.673,25.7,45.0,0.0,719.0,4.2,0.5,30.5,75.5,6404.0,4719.0,1013.0
2026-01-07 16:49:41,2026-01-07 16:49:41,1012.9,+2325,4.44,+2431,2015/10/18,05:54:36,+0000000000,+0000000000,-00017000,00,,,,,,,,,,,,,2026-01-07 16:49:41,00.04,058,-00.02,-00.01,00.03,23.74,43.21,1012.13,-177.5,-179.2,352,,,,,,2026-01-07 16:49:41,21615.0,0.0,294.0,-0.06,0.31,4.69,2.337,25.7,45.0,0.0,718.0,4.18,0.5,30.0,75.5,6404.0,4708.0,1013.0
2026-01-07 16:49:42,2026-01-07 16:49:42,1012.93,+2321,4.44,+2433,2015/10/18,05:54:37,+0000000000,+0000000000,-00017000,00,,,,,,,,,,,,,2026-01-07 16:49:42,00.05,062,-00.03,-00.02,00.03,23.71,43.21,1012.10,-177.5,-179.2,357,,,,,,2026-01-07 16:49:42,21616.0,1.99,3372.0,2.31,-0.37,4.628,1.995,25.7,45.0,0.0,720.0,4.19,0.5,29.6,75.5,6404.0,4697.0,1013.0
2026-01-07 16:49:43,2026-01-07 16:49:43,1012.9,+2320,4.44,+2433,2015/10/18,05:54:38,+0000000000,+0000000000,-00017000,00,,,,,,,,,,,,,2026-01-07 16:49:43,00.05,059,-00.03,-00.02,00.03,23.71,43.23,1012.11,-177.5,-179.2,355,,,,,,2026-01-07 16:49:43,21617.0,0.0,292.0,-0.19,0.44,4.647,2.014,25.7,45.0,0.0,721.0,4.19,0.5,29.7,75.5,6404.0,4703.0,1013.0
2026-01-07 16:49:44,2026-01-07 16:49:44,1012.92,+2322,4.44,+2433,2015/10/18,05:54:39,+0000000000,+0000000000,-00017000,00,,,,,,,,,,,,,2026-01-07 16:49:44,00.03,086,-00.01,-00.00,00.03,23.74,43.18,1012.11,-177.5,-179.2,353,,,,,,2026-01-07 16:49:44,21618.0,1.97,3372.0,2.06,-0.06,4.701,1.998,25.7,45.0,0.0,720.0,4.2,0.5,30.0,75.5,6404.0,4706.0,1013.0
2026-01-07 16:49:45,2026-01-07 16:49:45,1012.92,+2319,4.44,+2433,2015/10/18,05:54:40,+0000000000,+0000000000,-00017000,00,,,,,,,,,,,,,2026-01-07 16:49:45,00.05,038,-00.02,-00.02,00.03,23.73,43.21,1012.13,-177.5,-179.2,355,,,,,,2026-01-07 16:49:45,21619.0,0.0,298.0,-0.31,0.25,4.716,1.461,25.7,45.0,0.0,1200.0,4.19,0.499,30.1,77.1,6175.0,4697.0,1013.0
2026-01-07 16:49:47,2026-01-07 16:49:46,1012.93,+2319,4.44,+2433,2015/10/18,05:54:41,+0000000000,+0000000000,-00017000,00,,,,,,,,,,,,,2026-01-07 16:49:46,00.03,098,-00.03,00.00,00.02,23.79,43.22,1012.08,-177.5,-179.2,356,,,,,,2026-01-07 16:49:46,21620.0,1.99,3375.0,1.87,-0.31,4.773,0.991,25.7,45.0,0.0,1199.0,4.19,0.5,30.5,77.1,6175.0,4704.0,1013.0
2026-01-07 16:49:48,2026-01-07 16:49:47,1012.95,+2322,4.44,+2433,2015/10/18,05:54:42,+0000000000,+0000000000,-00017000,00,2026-01-07 16:49:47,12.1,309.8,744.5,1.4753,12.2,0000.00000,00000.00000,0.0,0,07/01/26,16:55:18,2026-01-07 16:49:47,00.05,080,-00.04,-00.01,00.02,23.77,43.21,1012.11,-177.5,-179.2,356,,,,,,2026-01-07 16:49:47,21621.0,0.0,293.0,-0.37,0.12,4.804,0.627,25.7,45.0,0.0,1199.0,4.2,0.5,30.7,77.1,6175.0,4703.0,1013.0
2026-01-07 16:49:49,2026-01-07 16:49:48,1012.97,+2323,4.44,+2434,2015/10/18,05:54:43,+0000000000,+0000000000,-00017000,00,,,,,,,,,,,,,2026-01-07 16:49:48,00.06,051,-00.04,-00.03,00.03,23.74,43.19,1012.10,-177.5,-179.2,356,,,,,,2026-01-07 16:49:48,21622.0,1.98,3372.0,1.69,-0.12,4.776,0.279,25.7,45.0,0.0,1199.0,4.2,0.5,30.5,77.1,6175.0,4710.0,1013.0
2026-01-07 16:49:50,2026-01-07 16:49:49,1012.93,+2327,4.44,+2433,2015/10/18,05:54:44,+0000000000,+0000000000,-00017000,00,,,,,,,,,,,,,2026-01-07 16:49:49,00.06,095,-00.06,00.00,00.02,23.71,43.17,1012.11,-177.5,-179.2,355,,,,,,2026-01-07 16:49:49,21623.0,0.0,297.0,-0.25,-0.12,4.741,0.367,25.7,45.0,0.0,1199.0,4.2,0.5,30.3,77.1,6175.0,4705.0,1013.0
2026-01-07 16:49:51,2026-01-07 16:49:50,1012.92,+2322,4.44,+2433,2015/10/18,05:54:45,+0000000000,+0000000000,-00017000,00,,,,,,,,,,,,,2026-01-07 16:49:50,00.04,066,-00.03,-00.01,00.03,23.72,43.24,1012.11,-177.5,-179.2,354,,,,,,2026-01-07 16:49:50,21624.0,2.0,3372.0,1.87,0.06,4.667,0.522,25.7,45.0,0.0,1198.0,4.2,0.5,29.8,77.1,6175.0,4715.0,1013.0
2026-01-07 16:49:52,2026-01-07 16:49:51,1012.91,+2321,4.44,+2433,2015/10/18,05:54:46,+0000000000,+0000000000,-00017000,00,,,,,,,,,,,,,2026-01-07 16:49:51,00.06,089,-00.04,-00.00,00.03,23.69,43.21,1012.11,-177.5,-179.2,354,,,,,,2026-01-07 16:49:51,21625.0,0.0,300.0,-0.19,2.94,4.669,1.166,25.7,45.0,0.0,82.0,4.2,0.5,29.8,77.9,6041.0,4701.0,1013.0
2026-01-07 16:49:53,2026-01-07 16:49:52,1012.91,+2322,4.44,+2433,2015/10/18,05:54:47,+0000000000,+0000000000,-00017000,00,,,,,,,,,,,,,2026-01-07 16:49:52,00.05,070,-00.04,-00.01,00.03,23.71,43.18,1012.11,-177.5,-179.2,357,,,,,,2026-01-07 16:49:52,21626.0,1.99,3369.0,1.62,-1.75,4.679,1.871,25.7,45.0,0.0,100.0,4.2,0.5,29.9,77.9,6041.0,4700.0,1013.0
2026-01-07 16:49:54,2026-01-07 16:49:53,1012.92,+2321,4.44,+2433,2015/10/18,05:54:48,+0000000000,+0000000000,-00017000,00,,,,,,,,,,,,,2026-01-07 16:49:53,00.05,078,-00.05,-00.01,00.01,23.71,43.23,1012.11,-177.5,-179.2,356,,,,,,2026-01-07 16:49:53,21627.0,0.0,300.0,-0.31,2.5,4.697,2.903,25.7,45.0,0.0,98.0,4.2,0.5,30.0,77.9,6041.0,4712.0,1013.0
2026-01-07 16:49:55,2026-01-07 16:49:54,1012.89,+2322,4.44,+2433,2015/10/18,05:54:49,+0000000000,+0000000000,-00017000,00,,,,,,,,,,,,,2026-01-07 16:49:54,00.08,077,-00.07,-00.02,00.03,23.73,43.16,1012.13,-177.5,-179.2,355,,,,,,2026-01-07 16:49:54,21628.0,1.99,3373.0,1.94,-1.81,4.784,3.823,25.7,45.0,0.0,100.0,4.2,0.5,30.6,77.9,6041.0,4708.0,1013.0
2026-01-07 16:49:56,2026-01-07 16:49:55,1012.91,+2320,4.44,+2433,2015/10/18,05:54:50,+0000000000,+0000000000,-00017000,00,,,,,,,,,,,,,2026-01-07 16:49:55,00.06,062,-00.05,-00.02,00.03,23.87,43.17,1012.10,-177.5,-179.2,358,,,,,,2026-01-07 16:49:55,21629.0,0.0,298.0,0.31,2.81,4.722,4.081,25.7,45.0,0.0,100.0,4.2,0.5,30.2,77.9,6041.0,4697.0,1013.0
2026-01-07 16:49:57,2026-01-07 16:49:56,1012.98,+2322,4.44,+2433,2015/10/18,05:54:51,+0000000000,+0000000000,-00017000,00,,,,,,,,,,,,,2026-01-07 16:49:56,00.05,088,-00.04,-00.00,00.04,23.76,43.25,1012.09,-177.5,-179.2,355,,,,,,2026-01-07 16:49:56,21630.0,2.03,3373.0,2.12,-1.81,4.726,4.276,25.7,45.0,0.0,99.0,4.2,0.5,30.2,77.9,6041.0,4702.0,1013.0
2026-01-07 16:49:58,2026-01-07 16:49:57,1012.88,+2322,4.44,+2433,2015/10/18,05:54:52,+0000000000,+0000000000,-00017000,00,2026-01-07 16:49:57,11.5,309.9,744.3,1.4755,12.2,0000.00000,00000.00000,0.0,0,07/01/26,16:55:28,2026-01-07 16:49:57,00.07,054,-00.05,-00.04,00.02,23.69,43.18,1012.14,-177.5,-179.2,355,,,,,,2026-01-07 16:49:57,21631.0,0.0,300.0,-0.19,0.62,4.695,4.084,25.7,45.0,0.0,359.0,4.2,0.5,30.0,69.5,6414.0,4705.0,1013.0
2026-01-07 16:49:59,2026-01-07 16:49:58,1012.93,+2321,4.44,+2433,2015/10/18,05:54:53,+0000000000,+0000000000,-00017000,00,,,,,,,,,,,,,2026-01-07 16:49:58,00.05,066,-00.04,-00.02,00.02,23.73,43.17,1012.12,-177.5,-179.2,354,,,,,,2026-01-07 16:49:58,21632.0,2.0,3372.0,2.5,-0.94,4.74,3.931,25.7,45.0,0.0,360.0,4.19,0.5,30.3,69.5,6414.0,4728.0,1013.0
2026-01-07 16:50:00,2026-01-07 16:49:59,1012.94,+2326,4.44,+2433,2015/10/18,05:54:54,+0000000000,+0000000000,-00017000,00,,,,,,,,,,,,,2026-01-07 16:50:00,00.05,057,-00.03,-00.02,00.04,23.72,43.21,1012.11,-177.5,-179.2,356,,,,,,2026-01-07 16:49:59,21633.0,0.0,297.0,-0.31,1.62,4.753,3.73,25.7,45.0,0.0,358.0,4.2,0.5,30.4,69.5,6414.0,4708.0,1013.0
2026-01-07 16:50:01,2026-01-07 16:50:00,1012.92,+2321,4.44,+2431,2015/10/18,05:54:55,+0000000000,+0000000000,-00017000,00,,,,,,,,,,,,,2026-01-07 16:50:01,00.04,069,-00.03,-00.01,00.03,23.74,43.18,1012.10,-177.5,-179.2,358,,,,,,2026-01-07 16:50:00,21634.0,1.99,3371.0,1.81,-1.06,4.762,3.625,25.7,45.0,0.0,360.0,4.2,0.5,30.4,69.5,6414.0,4708.0,1013.0
2026-01-07 16:50:02,2026-01-07 16:50:01,1012.94,+2322,4.44,+2433,2015/10/18,05:54:56,+0000000000,+0000000000,-00017000,00,,,,,,,,,,,,,2026-01-07 16:50:02,00.05,104,-00.03,00.01,00.04,23.74,43.22,1012.12,-177.5,-179.2,353,,,,,,2026-01-07 16:50:01,21635.0,0.0,293.0,-0.12,1.69,4.773,3.644,25.7,45.0,0.0,359.0,4.2,0.5,30.5,69.5,6414.0,4697.0,1013.0
2026-01-07 16:50:03,2026-01-07 16:50:02,1012.85,+2321,4.44,+2431,2015/10/18,05:54:57,+0000000000,+0000000000,-00017000,00,,,,,,,,,,,,,2026-01-07 16:50:03,00.05,071,-00.04,-00.01,00.03,23.74,43.18,1012.12,-177.5,-179.2,354,,,,,,2026-01-07 16:50:02,21636.0,1.99,3375.0,2.12,-1.12,4.849,3.63,25.7,45.0,0.0,360.0,4.19,0.5,31.0,69.5,6414.0,4703.0,1013.0
2026-01-07 16:50:04,2026-01-07 16:50:03,1012.9,+2321,4.44,+2434,2015/10/18,05:54:58,+0000000000,+0000000000,-00017000,00,,,,,,,,,,,,,2026-01-07 16:50:04,00.03,065,-00.02,-00.01,00.02,23.72,43.18,1012.10,-177.5,-179.2,357,,,,,,2026-01-07 16:50:03,21637.0,0.0,296.0,-0.12,-0.31,4.918,3.231,25.7,45.0,0.0,719.0,4.2,0.5,31.4,84.0,5963.0,4730.0,1013.0
2026-01-07 16:50:05,2026-01-07 16:50:04,1012.92,+2321,4.44,+2434,2015/10/18,05:54:59,+0000000000,+0000000000,-00017000,00,,,,,,,,,,,,,2026-01-07 16:50:05,00.05,085,-00.04,-00.00,00.04,23.74,43.13,1012.10,-177.5,-179.2,353,,,,,,2026-01-07 16:50:04,21638.0,1.99,3373.0,2.44,-0.19,4.971,2.797,25.6,45.0,0.0,718.0,4.19,0.5,31.8,84.0,5963.0,4700.0,1013.0
2026-01-07 16:50:06,2026-01-07 16:50:05,1012.92,+2322,4.44,+2433,2015/10/18,05:55:00,+0000000000,+0000000000,-00017000,00,,,,,,,,,,,,,2026-01-07 16:50:06,00.07,094,-00.05,00.00,00.04,23.76,43.15,1012.08,-177.5,-179.2,354,,,,,,2026-01-07 16:50:05,21639.0,0.0,298.0,-0.37,0.44,4.972,2.379,25.6,45.0,0.0,719.0,4.2,0.5,31.8,84.0,5963.0,4699.0,1013.0
2026-01-07 16:50:07,2026-01-07 16:50:06,1012.93,+2319,4.44,+2433,2015/10/18,05:55:01,+0000000000,+0000000000,-00017000,00,,,,,,,,,,,,,2026-01-07 16:50:07,00.05,091,-00.04,00.00,00.04,23.76,43.20,1012.11,-177.5,-179.2,358,,,,,,2026-01-07 16:50:06,21640.0,2.0,3372.0,1.94,-0.06,4.855,2.017,25.6,45.0,0.0,719.0,4.2,0.5,31.0,84.0,5963.0,4705.0,1013.0
2026-01-07 16:50:08,2026-01-07 16:50:08,1012.91,+2322,4.44,+2433,2015/10/18,05:55:03,+0000000000,+0000000000,-00017000,00,2026-01-07 16:50:07,12.6,309.9,745.2,1.4756,12.2,0000.00000,00000.00000,0.0,0,07/01/26,16:55:38,2026-01-07 16:50:08,00.04,039,-00.02,-00.03,00.02,23.77,43.20,1012.12,-177.5,-179.2,354,,,,,,2026-01-07 16:50:07,21641.0,0.0,296.0,-0.12,0.75,4.814,2.02,25.6,45.0,0.0,719.0,4.2,0.5,30.8,84.0,5963.0,4705.0,1013.0
2026-01-07 16:50:09,2026-01-07 16:50:09,1012.95,+2321,4.44,+2434,2015/10/18,05:55:04,+0000000000,+0000000000,-00017000,00,,,,,,,,,,,,,2026-01-07 16:50:09,00.02,070,-00.02,-00.01,00.01,23.80,43.21,1012.11,-177.5,-179.2,354,,,,,,2026-01-07 16:50:08,21642.0,1.96,3375.0,2.19,-0.56,4.793,1.966,25.6,45.0,0.0,720.0,4.2,0.499,30.6,84.0,5963.0,4695.0,1013.0
2026-01-07 16:50:10,2026-01-07 16:50:10,1012.88,+2319,4.44,+2433,2015/10/18,05:55:05,+0000000000,+0000000000,-00017000,00,,,,,,,,,,,,,2026-01-07 16:50:10,00.05,077,-00.05,-00.01,00.02,23.78,43.19,1012.12,-177.5,-179.2,356,,,,,,2026-01-07 16:50:09,21643.0,0.0,300.0,-0.06,0.12,4.836,1.437,25.6,45.0,0.0,1199.0,4.2,0.5,30.9,81.1,6037.0,4703.0,1013.0
2026-01-07 16:50:11,2026-01-07 16:50:11,1012.88,+2321,4.44,+2433,2015/10/18,05:55:06,+0000000000,+0000000000,-00017000,00,,,,,,,,,,,,,2026-01-07 16:50:11,00.04,074,-00.03,-00.01,00.02,23.76,43.15,1012.11,-177.5,-179.2,355,,,,,,2026-01-07 16:50:10,21644.0,1.98,3373.0,1.56,0.06,4.757,0.936,25.7,45.0,0.0,1199.0,4.2,0.5,30.4,81.1,6037.0,4701.0,1013.0
2026-01-07 16:50:12,2026-01-07 16:50:12,1012.91,+2326,4.44,+2433,2015/10/18,05:55:07,+0000000000,+0000000000,-00017000,00,,,,,,,,,,,,,2026-01-07 16:50:12,00.04,086,-00.03,-00.00,00.03,23.75,43.18,1012.08,-177.5,-179.2,354,,,,,,2026-01-07 16:50:11,21645.0,0.0,297.0,-0.31,0.62,4.757,0.572,25.7,45.0,0.0,1199.0,4.2,0.5,30.4,81.1,6037.0,4700.0,1013.0
2026-01-07 16:50:13,2026-01-07 16:50:13,1012.93,+2325,4.44,+2434,2015/10/18,05:55:08,+0000000000,+0000000000,-00017000,00,,,,,,,,,,,,,2026-01-07 16:50:13,00.05,075,-00.04,-00.01,00.03,23.74,43.17,1012.09,-177.5,-179.1,353,,,,,,2026-01-07 16:50:12,21646.0,1.99,3375.0,2.06,0.37,4.667,0.255,25.7,45.0,0.0,1199.0,4.2,0.5,29.8,81.1,6037.0,4704.0,1013.0
2026-01-07 16:50:14,2026-01-07 16:50:14,1012.94,+2325,4.44,+2434,2015/10/18,05:55:09,+0000000000,+0000000000,-00017000,00,,,,,,,,,,,,,2026-01-07 16:50:14,00.05,092,-00.04,00.00,00.03,23.73,43.19,1012.11,-177.5,-179.2,355,,,,,,2026-01-07 16:50:13,21647.0,0.0,297.0,-0.31,0.31,4.643,0.416,25.7,45.0,0.0,1200.0,4.19,0.498,29.7,81.1,6037.0,4686.0,1013.0
2026-01-07 16:50:15,2026-01-07 16:50:15,1012.92,+2324,4.44,+2434,2015/10/18,05:55:10,+0000000000,+0000000000,-00017000,00,,,,,,,,,,,,,2026-01-07 16:50:15,00.04,112,-00.02,00.01,00.03,23.71,43.18,1012.10,-177.5,-179.2,353,,,,,,2026-01-07 16:50:14,21648.0,2.01,3372.0,2.19,0.06,4.705,0.567,25.7,45.0,0.0,1198.0,4.2,0.5,30.1,81.1,6037.0,4704.0,1013.0
2026-01-07 16:50:16,2026-01-07 16:50:16,1012.95,+2321,4.44,+2434,2015/10/18,05:55:11,+0000000000,+0000000000,-00017000,00,,,,,,,,,,,,,2026-01-07 16:50:16,00.06,109,-00.05,00.02,00.03,23.69,43.20,1012.12,-177.5,-179.2,358,,,,,,2026-01-07 16:50:15,21649.0,0.0,297.0,0.06,3.31,4.705,1.239,25.7,45.0,0.0,83.0,4.2,0.5,30.1,82.4,5834.0,4701.0,1013.0
2026-01-07 16:50:17,2026-01-07 16:50:17,1012.92,+2318,4.44,+2433,2015/10/18,05:55:12,+0000000000,+0000000000,-00017000,00,,,,,,,,,,,,,2026-01-07 16:50:17,00.04,088,-00.03,-00.00,00.02,23.71,43.13,1012.14,-177.5,-179.2,356,,,,,,,,,,,,,,,,,,,,,,,,
2026-01-07 16:50:18,2026-01-07 16:50:18,1012.96,+2325,4.44,+2434,2015/10/18,05:55:13,+0000000000,+0000000000,-00017000,00,2026-01-07 16:50:17,13.4,309.9,745.5,1.4757,12.2,0000.00000,00000.00000,0.0,0,07/01/26,16:55:48,2026-01-07 16:50:18,00.03,088,-00.02,-00.00,00.02,23.69,43.20,1012.10,-177.5,-179.2,355,,,,,,2026-01-07 16:50:18,21651.0,0.0,300.0,0.06,3.19,4.774,3.067,25.7,45.0,0.0,99.0,4.19,0.5,30.5,82.4,5834.0,4708.0,1013.0
2026-01-07 16:50:19,2026-01-07 16:50:19,1012.93,+2325,4.44,+2434,2015/10/18,05:55:14,+0000000000,+0000000000,-00017000,00,,,,,,,,,,,,,2026-01-07 16:50:19,00.05,099,-00.04,00.01,00.02,23.69,43.17,1012.09,-177.5,-179.2,353,,,,,,2026-01-07 16:50:18,21652.0,2.0,3371.0,1.25,-1.75,4.726,3.984,25.7,45.0,0.0,99.0,4.19,0.499,30.2,82.4,5834.0,4681.0,1013.0
2026-01-07 16:50:20,2026-01-07 16:50:20,1012.94,+2326,4.44,+2434,2015/10/18,05:55:15,+0000000000,+0000000000,-00017000,00,,,,,,,,,,,,,2026-01-07 16:50:20,00.07,079,-00.06,-00.01,00.03,23.70,43.16,1012.11,-177.5,-179.2,356,,,,,,2026-01-07 16:50:19,21653.0,0.0,296.0,-0.25,2.31,4.765,4.17,25.7,45.0,0.0,98.0,4.19,0.5,30.5,82.4,5834.0,4705.0,1013.0
2026-01-07 16:50:21,2026-01-07 16:50:21,1012.94,+2322,4.44,+2433,2015/10/18,05:55:16,+0000000000,+0000000000,-00017000,00,,,,,,,,,,,,,2026-01-07 16:50:21,00.08,092,-00.07,00.00,00.02,23.68,43.18,1012.12,-177.5,-179.2,354,,,,,,2026-01-07 16:50:20,21654.0,2.0,3372.0,1.75,-2.44,4.725,4.285,25.7,45.0,0.0,102.0,4.2,0.5,30.2,82.4,5834.0,4697.0,1013.0
2026-01-07 16:50:22,2026-01-07 16:50:22,1012.94,+2324,4.44,+2434,2015/10/18,05:55:17,+0000000000,+0000000000,-00017000,00,,,,,,,,,,,,,2026-01-07 16:50:22,00.05,091,-00.04,00.00,00.03,23.68,43.12,1012.09,-177.5,-179.2,357,,,,,,2026-01-07 16:50:21,21655.0,0.0,297.0,-0.44,0.62,4.78,4.08,25.7,45.0,0.0,360.0,4.2,0.5,30.5,82.0,5919.0,4700.0,1013.0
2026-01-07 16:50:23,2026-01-07 16:50:23,1012.95,+2324,4.44,+2434,2015/10/18,05:55:18,+0000000000,+0000000000,-00017000,00,,,,,,,,,,,,,2026-01-07 16:50:23,00.06,081,-00.04,-00.01,00.03,23.68,43.17,1012.09,-177.5,-179.2,356,,,,,,2026-01-07 16:50:22,21656.0,1.99,3372.0,1.31,-1.37,4.847,3.986,25.7,45.0,0.0,360.0,4.2,0.5,31.0,82.0,5919.0,4700.0,1013.0
2026-01-07 16:50:24,2026-01-07 16:50:24,1012.95,+2320,4.44,+2433,2015/10/18,05:55:19,+0000000000,+0000000000,-00017000,00,,,,,,,,,,,,,2026-01-07 16:50:24,00.06,122,-00.04,00.02,00.04,23.70,43.14,1012.10,-177.5,-179.2,355,,,,,,2026-01-07 16:50:23,21657.0,0.0,297.0,-0.12,1.37,4.847,3.801,25.7,45.0,0.0,360.0,4.2,0.5,31.0,82.0,5919.0,4684.0,1013.0
2026-01-07 16:50:25,2026-01-07 16:50:25,1012.91,+2320,4.44,+2433,2015/10/18,05:55:20,+0000000000,+0000000000,-00017000,00,,,,,,,,,,,,,2026-01-07 16:50:25,00.05,099,-00.04,00.01,00.03,23.70,43.21,1012.10,-177.5,-179.2,353,,,,,,2026-01-07 16:50:24,21658.0,1.99,3372.0,2.0,-0.94,4.914,3.725,25.7,45.0,0.0,357.0,4.2,0.5,31.4,82.0,5919.0,4706.0,1013.0
2026-01-07 16:50:26,2026-01-07 16:50:26,1012.92,+2320,4.44,+2434,2015/10/18,05:55:21,+0000000000,+0000000000,-00017000,00,,,,,,,,,,,,,2026-01-07 16:50:26,00.04,117,-00.03,00.01,00.03,23.70,43.17,1012.10,-177.5,-179.2,352,,,,,,2026-01-07 16:50:25,21659.0,0.0,298.0,-0.44,1.37,4.93,3.71,25.7,45.0,0.0,359.0,4.2,0.5,31.5,82.0,5919.0,4707.0,1013.0
2026-01-07 16:50:27,2026-01-07 16:50:27,1012.9,+2320,4.44,+2433,2015/10/18,05:55:22,+0000000000,+0000000000,-00017000,00,,,,,,,,,,,,,2026-01-07 16:50:27,00.04,117,-00.04,00.02,00.01,23.70,43.19,1012.11,-177.5,-179.2,352,,,,,,2026-01-07 16:50:26,21660.0,1.99,3375.0,1.12,-0.5,4.887,3.62,25.7,45.0,0.0,359.0,4.2,0.5,31.2,82.0,5919.0,4708.0,1013.0
2026-01-07 16:50:28,2026-01-07 16:50:28,1012.91,+2320,4.44,+2434,2015/10/18,05:55:23,+0000000000,+0000000000,-00017000,00,2026-01-07 16:50:27,13.7,309.9,745.7,1.4759,12.2,0000.00000,00000.00000,0.0,0,07/01/26,16:55:58,2026-01-07 16:50:28,00.08,095,-00.06,00.01,00.04,23.70,43.11,1012.11,-177.5,-179.2,352,,,,,,2026-01-07 16:50:27,21661.0,0.0,294.0,-0.37,0.31,4.876,3.237,25.7,45.0,0.0,719.0,4.2,0.499,31.2,73.1,6455.0,4698.0,1013.0
2026-01-07 16:50:29,2026-01-07 16:50:29,1012.91,+2321,4.44,+2433,2015/10/18,05:55:24,+0000000000,+0000000000,-00017000,00,,,,,,,,,,,,,2026-01-07 16:50:29,00.05,092,-00.04,00.00,00.03,23.72,43.15,1012.09,-177.5,-179.2,355,,,,,,2026-01-07 16:50:28,21662.0,2.0,3375.0,1.69,-0.25,4.824,2.786,25.7,45.0,0.0,718.0,4.19,0.5,30.8,73.1,6455.0,4703.0,1013.0
2026-01-07 16:50:30,2026-01-07 16:50:30,1012.94,+2321,4.44,+2434,2015/10/18,05:55:25,+0000000000,+0000000000,-00017000,00,,,,,,,,,,,,,2026-01-07 16:50:30,00.05,134,-00.03,00.03,00.02,23.77,43.13,1012.11,-177.5,-179.2,353,,,,,,2026-01-07 16:50:29,21663.0,0.0,293.0,-0.37,0.69,4.783,2.387,25.7,45.0,0.0,718.0,4.2,0.5,30.6,73.1,6455.0,4704.0,1013.0
2026-01-07 16:50:31,2026-01-07 16:50:31,1012.91,+2322,4.44,+2434,2015/10/18,05:55:26,+0000000000,+0000000000,-00017000,00,,,,,,,,,,,,,2026-01-07 16:50:31,00.05,102,-00.03,00.01,00.03,23.80,43.16,1012.09,-177.5,-179.2,353,,,,,,2026-01-07 16:50:30,21664.0,1.99,3375.0,1.81,-0.31,4.817,1.995,25.7,45.0,0.0,719.0,4.2,0.5,30.8,73.1,6455.0,4703.0,1013.0
2026-01-07 16:50:32,2026-01-07 16:50:32,1012.92,+2322,4.44,+2433,2015/10/18,05:55:27,+0000000000,+0000000000,-00017000,00,,,,,,,,,,,,,2026-01-07 16:50:32,00.05,130,-00.04,00.03,00.03,23.85,43.15,1012.12,-177.5,-179.2,354,,,,,,2026-01-07 16:50:31,21665.0,0.0,298.0,-0.12,0.56,4.802,1.943,25.7,45.0,0.0,720.0,4.19,0.5,30.7,73.1,6455.0,4702.0,1013.0
2026-01-07 16:50:33,2026-01-07 16:50:33,1012.9,+2321,4.44,+2434,2015/10/18,05:55:28,+0000000000,+0000000000,-00017000,00,,,,,,,,,,,,,2026-01-07 16:50:33,00.04,081,-00.04,-00.01,00.02,23.88,43.14,1012.11,-177.5,-179.2,358,,,,,,2026-01-07 16:50:32,21666.0,2.01,3371.0,1.44,-0.56,4.802,1.926,25.7,45.0,0.0,719.0,4.2,0.498,30.7,73.1,6455.0,4686.0,1013.0
2026-01-07 16:50:34,2026-01-07 16:50:34,1012.93,+2325,4.44,+2433,2015/10/18,05:55:29,+0000000000,+0000000000,-00017000,00,,,,,,,,,,,,,2026-01-07 16:50:34,00.06,092,-00.04,00.00,00.04,23.84,43.18,1012.09,-177.5,-179.2,357,,,,,,2026-01-07 16:50:33,21667.0,0.0,298.0,-0.25,0.56,4.799,1.409,25.7,45.0,0.0,1199.0,4.23,0.5,30.7,78.7,6159.0,4700.0,1013.0
2026-01-07 16:50:35,2026-01-07 16:50:35,1012.91,+2322,4.44,+2435,2015/10/18,05:55:30,+0000000000,+0000000000,-00017000,00,,,,,,,,,,,,,2026-01-07 16:50:35,00.05,087,-00.05,-00.00,00.02,23.77,43.15,1012.12,-177.5,-179.2,351,,,,,,2026-01-07 16:50:34,21668.0,2.0,3375.0,1.69,0.19,4.796,0.903,25.7,46.0,0.0,1199.0,4.2,0.5,30.6,78.7,6159.0,4704.0,1013.0
2026-01-07 16:50:36,2026-01-07 16:50:36,1012.9,+2321,4.44,+2434,2015/10/18,05:55:31,+0000000000,+0000000000,-00017000,00,,,,,,,,,,,,,2026-01-07 16:50:36,00.07,058,-00.05,-00.03,00.04,23.74,43.13,1012.10,-177.5,-179.2,357,,,,,,2026-01-07 16:50:35,21669.0,0.0,301.0,-0.56,0.31,4.81,0.564,25.7,46.0,0.0,1200.0,4.2,0.5,30.7,78.7,6159.0,4702.0,1013.0
2026-01-07 16:50:37,2026-01-07 16:50:37,1012.88,+2324,4.44,+2434,2015/10/18,05:55:32,+0000000000,+0000000000,-00017000,00,,,,,,,,,,,,,2026-01-07 16:50:37,00.05,072,-00.04,-00.01,00.02,23.70,43.12,1012.12,-177.5,-179.2,355,,,,,,2026-01-07 16:50:36,21670.0,1.99,3373.0,1.69,-0.06,4.77,0.233,25.7,46.0,0.0,1200.0,4.2,0.5,30.5,78.7,6159.0,4705.0,1013.0
2026-01-07 16:50:38,2026-01-07 16:50:38,1012.95,+2325,4.44,+2434,2015/10/18,05:55:33,+0000000000,+0000000000,-00017000,00,2026-01-07 16:50:37,13.3,309.9,745.8,1.4760,12.2,0000.00000,00000.00000,0.0,0,07/01/26,16:56:08,2026-01-07 16:50:38,00.05,079,-00.04,-00.01,00.03,23.68,43.17,1012.13,-177.5,-179.2,355,,,,,,2026-01-07 16:50:37,21671.0,0.0,300.0,-0.25,0.06,4.771,0.384,25.7,45.0,0.0,1199.0,4.2,0.499,30.5,78.7,6159.0,4682.0,1013.0
2026-01-07 16:50:39,2026-01-07 16:50:39,1012.92,+2323,4.44,+2434,2015/10/18,05:55:34,+0000000000,+0000000000,-00017000,00,,,,,,,,,,,,,2026-01-07 16:50:39,00.07,083,-00.06,-00.01,00.03,23.69,43.09,1012.11,-177.5,-179.1,356,,,,,,2026-01-07 16:50:38,21672.0,2.0,3372.0,1.94,0.19,4.734,0.599,25.7,45.0,0.0,1198.0,4.19,0.5,30.3,78.7,6159.0,4701.0,1013.0
2026-01-07 16:50:40,2026-01-07 16:50:40,1012.91,+2325,4.44,+2434,2015/10/18,05:55:35,+0000000000,+0000000000,-00017000,00,,,,,,,,,,,,,2026-01-07 16:50:40,00.06,098,-00.05,00.01,00.03,23.71,43.17,1012.13,-177.5,-179.2,356,,,,,,2026-01-07 16:50:39,21673.0,0.0,301.0,0.06,2.25,4.714,1.201,25.7,45.0,0.0,82.0,4.2,0.5,30.1,77.5,6073.0,4703.0,1013.0
2026-01-07 16:50:41,2026-01-07 16:50:41,1012.92,+2321,4.44,+2434,2015/10/18,05:55:36,+0000000000,+0000000000,-00017000,00,,,,,,,,,,,,,2026-01-07 16:50:41,00.05,083,-00.04,-00.00,00.03,23.70,43.17,1012.12,-177.5,-179.2,357,,,,,,2026-01-07 16:50:40,21674.0,1.99,3372.0,1.75,-1.25,4.708,1.822,25.7,45.0,0.0,99.0,4.22,0.499,30.1,77.5,6073.0,4702.0,1013.0
2026-01-07 16:50:42,2026-01-07 16:50:42,1012.91,+2322,4.44,+2434,2015/10/18,05:55:37,+0000000000,+0000000000,-00017000,00,,,,,,,,,,,,,2026-01-07 16:50:42,00.04,082,-00.03,-00.01,00.02,23.69,43.17,1012.14,-177.5,-179.2,355,,,,,,2026-01-07 16:50:41,21675.0,0.0,300.0,-0.37,2.81,4.677,2.876,25.7,45.0,0.0,100.0,4.19,0.5,29.9,77.5,6073.0,4700.0,1013.0
2026-01-07 16:50:43,2026-01-07 16:50:43,1012.92,+2322,4.44,+2434,2015/10/18,05:55:38,+0000000000,+0000000000,-00017000,00,,,,,,,,,,,,,2026-01-07 16:50:43,00.06,090,-00.04,-00.00,00.05,23.69,43.15,1012.09,-177.5,-179.2,355,,,,,,2026-01-07 16:50:42,21676.0,1.99,3373.0,1.81,-1.87,4.659,3.79,25.7,45.0,0.0,100.0,4.2,0.5,29.8,77.5,6073.0,4671.0,1013.0
2026-01-07 16:50:44,2026-01-07 16:50:44,1012.86,+2322,4.44,+2434,2015/10/18,05:55:39,+0000000000,+0000000000,-00017000,00,,,,,,,,,,,,,2026-01-07 16:50:44,00.04,073,-00.03,-00.01,00.03,23.67,43.14,1012.10,-177.5,-179.2,356,,,,,,2026-01-07 16:50:43,21677.0,0.0,297.0,0.0,2.44,4.627,4.098,25.7,45.0,0.0,99.0,4.2,0.5,29.6,77.5,6073.0,4706.0,1013.0
2026-01-07 16:50:45,2026-01-07 16:50:45,1012.93,+2321,4.44,+2433,2015/10/18,05:55:40,+0000000000,+0000000000,-00017000,00,,,,,,,,,,,,,2026-01-07 16:50:45,00.03,094,-00.02,00.00,00.02,23.70,43.12,1012.12,-177.5,-179.2,357,,,,,,2026-01-07 16:50:44,21678.0,1.99,3373.0,1.75,-1.56,4.717,4.321,25.7,45.0,0.0,100.0,4.2,0.5,30.1,77.5,6073.0,4707.0,1013.0
2026-01-07 16:50:46,2026-01-07 16:50:46,1012.93,+2322,4.44,+2434,2015/10/18,05:55:41,+0000000000,+0000000000,-00017000,00,,,,,,,,,,,,,2026-01-07 16:50:46,00.04,129,-00.03,00.02,00.02,23.70,43.17,1012.10,-177.5,-179.2,355,,,,,,2026-01-07 16:50:45,21679.0,0.0,297.0,-1.0,0.87,4.729,4.118,25.7,45.0,0.0,359.0,4.2,0.5,30.2,72.9,6393.0,4704.0,1013.0
2026-01-07 16:50:47,2026-01-07 16:50:47,1012.89,+2321,4.44,+2433,2015/10/18,05:55:42,+0000000000,+0000000000,-00017000,00,,,,,,,,,,,,,2026-01-07 16:50:47,00.03,100,-00.01,00.00,00.03,23.69,43.13,1012.13,-177.5,-179.2,355,,,,,,2026-01-07 16:50:46,21680.0,2.0,3372.0,2.06,-0.94,4.661,3.933,25.7,45.0,0.0,359.0,4.2,0.5,29.8,72.9,6393.0,4706.0,1013.0
2026-01-07 16:50:48,2026-01-07 16:50:48,1012.88,+2324,4.44,+2434,2015/10/18,05:55:43,+0000000000,+0000000000,-00017000,00,2026-01-07 16:50:47,13.7,309.9,745.2,1.4761,12.2,0000.00000,00000.00000,0.0,0,07/01/26,16:56:18,2026-01-07 16:50:48,00.05,083,-00.04,-00.00,00.03,23.70,43.15,1012.11,-177.5,-179.2,356,,,,,,2026-01-07 16:50:47,21681.0,0.0,297.0,-0.75,1.31,4.691,3.739,25.7,45.0,0.0,360.0,4.2,0.5,30.0,72.9,6393.0,4701.0,1013.0
2026-01-07 16:50:49,2026-01-07 16:50:49,1012.91,+2322,4.44,+2434,2015/10/18,05:55:44,+0000000000,+0000000000,-00017000,00,,,,,,,,,,,,,2026-01-07 16:50:49,00.06,094,-00.05,00.00,00.02,23.71,43.16,1012.12,-177.5,-179.2,357,,,,,,2026-01-07 16:50:48,21682.0,2.0,3371.0,1.69,-0.81,4.626,3.58,25.7,45.0,0.0,360.0,4.19,0.5,29.6,72.9,6393.0,4700.0,1013.0
2026-01-07 16:50:50,2026-01-07 16:50:50,1012.98,+2325,4.44,+2434,2015/10/18,05:55:45,+0000000000,+0000000000,-00017000,00,,,,,,,,,,,,,2026-01-07 16:50:50,00.05,073,-00.04,-00.01,00.02,23.70,43.16,1012.10,-177.5,-179.2,355,,,,,,2026-01-07 16:50:49,21683.0,0.0,298.0,-0.69,1.19,4.589,3.572,25.6,45.0,0.0,358.0,4.2,0.5,29.3,72.9,6393.0,4699.0,1013.0
2026-01-07 16:50:51,2026-01-07 16:50:51,1012.91,+2324,4.44,+2435,2015/10/18,05:55:46,+0000000000,+0000000000,-00017000,00,,,,,,,,,,,,,2026-01-07 16:50:51,00.07,100,-00.06,00.01,00.02,23.70,43.13,1012.12,-177.5,-179.2,358,,,,,,2026-01-07 16:50:50,21684.0,1.98,3369.0,1.75,-1.0,4.738,3.586,25.6,45.0,0.0,360.0,4.2,0.499,30.3,72.9,6393.0,4708.0,1013.0
2026-01-07 16:50:52,2026-01-07 16:50:52,1012.92,+2324,4.44,+2434,2015/10/18,05:55:47,+0000000000,+0000000000,-00017000,00,,,,,,,,,,,,,2026-01-07 16:50:52,00.05,083,-00.05,-00.01,00.03,23.70,43.14,1012.11,-177.5,-179.2,355,,,,,,2026-01-07 16:50:51,21685.0,0.0,294.0,-0.31,-0.06,4.717,3.185,25.6,45.0,0.0,719.0,4.2,0.5,30.1,82.1,5873.0,4706.0,1013.0
2026-01-07 16:50:53,2026-01-07 16:50:53,1012.95,+2321,4.44,+2435,2015/10/18,05:55:48,+0000000000,+0000000000,-00017000,00,,,,,,,,,,,,,2026-01-07 16:50:53,00.07,081,-00.05,-00.01,00.04,23.67,43.15,1012.12,-177.5,-179.2,355,,,,,,2026-01-07 16:50:52,21686.0,1.98,3369.0,1.87,-0.19,4.744,2.764,25.7,45.0,0.0,718.0,4.2,0.5,30.3,82.1,5873.0,4704.0,1013.0
2026-01-07 16:50:54,2026-01-07 16:50:54,1012.92,+2326,4.44,+2434,2015/10/18,05:55:49,+0000000000,+0000000000,-00017000,00,,,,,,,,,,,,,2026-01-07 16:50:54,00.06,076,-00.05,-00.01,00.03,23.68,43.11,1012.11,-177.5,-179.2,353,,,,,,2026-01-07 16:50:53,21687.0,0.0,298.0,-0.12,0.69,4.874,2.364,25.7,45.0,0.0,719.0,4.2,0.5,31.1,82.1,5873.0,4703.0,1013.0
2026-01-07 16:50:55,2026-01-07 16:50:55,1012.94,+2325,4.44,+2434,2015/10/18,05:55:50,+0000000000,+0000000000,-00017000,00,,,,,,,,,,,,,2026-01-07 16:50:55,00.06,115,-00.04,00.02,00.03,23.68,43.17,1012.11,-177.5,-179.2,354,,,,,,2026-01-07 16:50:54,21688.0,2.0,3373.0,1.81,0.0,4.824,2.042,25.7,45.0,0.0,720.0,4.2,0.5,30.8,82.1,5873.0,4701.0,1013.0
2026-01-07 16:50:56,2026-01-07 16:50:56,1012.91,+2324,4.44,+2437,2015/10/18,05:55:51,+0000000000,+0000000000,-00017000,00,,,,,,,,,,,,,2026-01-07 16:50:56,00.06,074,-00.05,-00.01,00.03,23.69,43.11,1012.12,-177.5,-179.2,356,,,,,,2026-01-07 16:50:55,21689.0,0.0,300.0,-0.31,0.62,4.858,2.076,25.7,45.0,0.0,719.0,4.21,0.499,31.0,82.1,5873.0,4697.0,1013.0
2026-01-07 16:50:57,2026-01-07 16:50:57,1012.94,+2322,4.44,+2434,2015/10/18,05:55:52,+0000000000,+0000000000,-00017000,00,,,,,,,,,,,,,2026-01-07 16:50:57,00.05,089,-00.04,-00.00,00.03,23.70,43.14,1012.07,-177.5,-179.2,356,,,,,,2026-01-07 16:50:56,21690.0,2.0,3375.0,1.75,0.0,4.907,2.066,25.7,45.0,0.0,720.0,4.2,0.5,31.4,82.1,5873.0,4705.0,1013.0
2026-01-07 16:50:58,2026-01-07 16:50:58,1012.95,+2324,4.44,+2434,2015/10/18,05:55:53,+0000000000,+0000000000,-00017000,00,2026-01-07 16:50:57,14.8,309.9,744.6,1.4762,12.2,0000.00000,00000.00000,0.0,0,07/01/26,16:56:28,2026-01-07 16:50:58,00.04,064,-00.02,-00.01,00.04,23.75,43.13,1012.12,-177.5,-179.2,353,,,,,,2026-01-07 16:50:57,21691.0,0.0,294.0,-0.31,0.12,4.765,1.539,25.7,45.0,0.0,1199.0,4.2,0.5,30.5,82.8,5811.0,4703.0,1013.0
2026-01-07 16:50:59,2026-01-07 16:50:59,1012.96,+2322,4.44,+2435,2015/10/18,05:55:54,+0000000000,+0000000000,-00017000,00,,,,,,,,,,,,,2026-01-07 16:50:59,00.03,047,-00.01,-00.01,00.03,23.70,43.16,1012.12,-177.5,-179.2,354,,,,,,2026-01-07 16:50:58,21692.0,2.0,3373.0,1.62,-0.06,4.775,1.033,25.7,45.0,0.0,1199.0,4.19,0.501,30.5,82.8,5811.0,4705.0,1013.0
2026-01-07 16:51:00,2026-01-07 16:51:00,1012.94,+2325,4.44,+2435,2015/10/18,05:55:55,+0000000000,+0000000000,-00017000,00,,,,,,,,,,,,,2026-01-07 16:51:00,00.05,116,-00.04,00.02,00.02,23.71,43.10,1012.12,-177.5,-179.2,354,,,,,,2026-01-07 16:50:59,21693.0,0.0,296.0,-0.44,-0.25,4.749,0.64,25.7,45.0,0.0,1199.0,4.19,0.5,30.3,82.8,5811.0,4698.0,1013.0
2026-01-07 16:51:01,2026-01-07 16:51:01,1012.95,+2321,4.44,+2434,2015/10/18,05:55:56,+0000000000,+0000000000,-00017000,00,,,,,,,,,,,,,2026-01-07 16:51:01,00.04,081,-00.04,-00.01,00.01,23.69,43.12,1012.10,-177.5,-179.2,355,,,,,,2026-01-07 16:51:00,21694.0,2.01,3373.0,1.81,0.12,4.661,0.306,25.7,45.0,0.0,1198.0,4.2,0.5,29.8,82.8,5811.0,4719.0,1013.0
2026-01-07 16:51:02,2026-01-07 16:51:02,1012.96,+2324,4.44,+2435,2015/10/18,05:55:57,+0000000000,+0000000000,-00017000,00,,,,,,,,,,,,,2026-01-07 16:51:02,00.07,094,-00.06,00.00,00.05,23.69,43.12,1012.14,-177.5,-179.2,357,,,,,,2026-01-07 16:51:01,21695.0,0.0,298.0,-0.06,0.44,4.738,0.412,25.7,45.0,0.0,1199.0,4.2,0.5,30.3,82.8,5811.0,4704.0,1013.0
2026-01-07 16:51:03,2026-01-07 16:51:03,1012.94,+2322,4.44,+2435,2015/10/18,05:55:58,+0000000000,+0000000000,-00017000,00,,,,,,,,,,,,,2026-01-07 16:51:03,00.07,074,-00.06,-00.02,00.04,23.66,43.11,1012.12,-177.5,-179.1,355,,,,,,2026-01-07 16:51:02,21696.0,1.99,3371.0,1.56,0.19,4.741,0.492,25.7,45.0,0.0,1199.0,4.2,0.5,30.3,82.8,5811.0,4698.0,1013.0
2026-01-07 16:51:04,2026-01-07 16:51:04,1012.92,+2324,4.44,+2435,2015/10/18,05:55:59,+0000000000,+0000000000,-00017000,00,,,,,,,,,,,,,2026-01-07 16:51:04,00.05,087,-00.04,-00.00,00.03,23.65,43.11,1012.11,-177.5,-179.2,355,,,,,,2026-01-07 16:51:03,21697.0,0.0,298.0,-0.5,2.44,4.745,1.145,25.7,45.0,0.0,82.0,4.19,0.5,30.3,84.7,5718.0,4712.0,1013.0
2026-01-07 16:51:05,2026-01-07 16:51:05,1012.94,+2323,4.44,+2435,2015/10/18,05:56:00,+0000000000,+0000000000,-00017000,00,,,,,,,,,,,,,2026-01-07 16:51:05,00.06,069,-00.04,-00.02,00.03,23.68,43.14,1012.13,-177.5,-179.2,357,,,,,,2026-01-07 16:51:04,21698.0,1.98,3373.0,1.81,-1.31,4.725,1.805,25.7,45.0,0.0,100.0,4.2,0.5,30.2,84.7,5718.0,4707.0,1013.0
2026-01-07 16:51:06,2026-01-07 16:51:06,1012.92,+2323,4.44,+2435,2015/10/18,05:56:01,+0000000000,+0000000000,-00017000,00,,,,,,,,,,,,,2026-01-07 16:51:06,00.06,075,-00.05,-00.01,00.02,23.77,43.10,1012.14,-177.5,-179.2,355,,,,,,2026-01-07 16:51:05,21699.0,0.0,304.0,-0.75,2.87,4.667,2.912,25.7,45.0,0.0,99.0,4.2,0.5,29.8,84.7,5718.0,4689.0,1013.0
2026-01-07 16:51:07,2026-01-07 16:51:07,1012.95,+2325,4.44,+2435,2015/10/18,05:56:02,+0000000000,+0000000000,-00017000,00,,,,,,,,,,,,,2026-01-07 16:51:07,00.07,063,-00.05,-00.03,00.03,23.74,43.14,1012.14,-177.5,-179.2,356,,,,,,2026-01-07 16:51:06,21700.0,2.0,3371.0,1.81,-2.06,4.625,3.938,25.7,45.0,0.0,100.0,4.2,0.5,29.6,84.7,5718.0,4708.0,1013.0
2026-01-07 16:51:08,2026-01-07 16:51:08,1012.92,+2322,4.44,+2434,2015/10/18,05:56:03,+0000000000,+0000000000,-00017000,00,2026-01-07 16:51:07,15.6,309.9,745.4,1.4764,12.2,0000.00000,00000.00000,0.0,0,07/01/26,16:56:38,2026-01-07 16:51:08,00.09,056,-00.07,-00.05,00.03,23.70,43.07,1012.10,-177.5,-179.2,357,,,,,,2026-01-07 16:51:07,21701.0,0.0,296.0,-0.81,2.94,4.606,4.172,25.7,45.0,0.0,99.0,4.2,0.5,29.4,84.7,5718.0,4706.0,1013.0
2026-01-07 16:51:09,2026-01-07 16:51:09,1012.91,+2322,4.44,+2435,2015/10/18,05:56:04,+0000000000,+0000000000,-00017000,00,,,,,,,,,,,,,2026-01-07 16:51:09,00.08,060,-00.07,-00.04,00.04,23.65,43.12,1012.11,-177.5,-179.2,353,,,,,,2026-01-07 16:51:08,21702.0,1.99,3373.0,1.5,-2.06,4.66,4.313,25.7,45.0,0.0,100.0,4.2,0.5,29.8,84.7,5718.0,4745.0,1013.0
2026-01-07 16:51:10,2026-01-07 16:51:10,1012.92,+2324,4.44,+2434,2015/10/18,05:56:05,+0000000000,+0000000000,-00017000,00,,,,,,,,,,,,,2026-01-07 16:51:10,00.09,053,-00.07,-00.05,00.04,23.62,43.13,1012.13,-177.5,-179.2,357,,,,,,2026-01-07 16:51:09,21703.0,0.0,298.0,0.0,1.0,4.739,4.13,25.7,45.0,0.0,360.0,4.2,0.5,30.3,84.9,5763.0,4701.0,1013.0
2026-01-07 16:51:11,2026-01-07 16:51:11,1012.94,+2325,4.44,+2435,2015/10/18,05:56:06,+0000000000,+0000000000,-00017000,00,,,,,,,,,,,,,2026-01-07 16:51:11,00.06,060,-00.05,-00.03,00.03,23.68,43.07,1012.14,-177.5,-179.2,355,,,,,,2026-01-07 16:51:10,21704.0,2.0,3373.0,1.0,-1.06,4.778,3.952,25.7,45.0,0.0,360.0,4.2,0.5,30.5,84.9,5763.0,4708.0,1013.0
2026-01-07 16:51:12,2026-01-07 16:51:12,1012.95,+2325,4.44,+2435,2015/10/18,05:56:07,+0000000000,+0000000000,-00017000,00,,,,,,,,,,,,,2026-01-07 16:51:12,00.06,055,-00.04,-00.03,00.03,23.70,43.07,1012.13,-177.5,-179.2,354,,,,,,2026-01-07 16:51:11,21705.0,0.0,298.0,-0.44,1.0,4.744,3.75,25.7,45.0,0.0,360.0,4.19,0.5,30.3,84.9,5763.0,4705.0,1013.0
2026-01-07 16:51:13,2026-01-07 16:51:13,1012.97,+2321,4.44,+2437,2015/10/18,05:56:08,+0000000000,+0000000000,-00017000,00,,,,,,,,,,,,,2026-01-07 16:51:13,00.06,065,-00.05,-00.02,00.03,23.74,43.12,1012.11,-177.5,-179.2,357,,,,,,2026-01-07 16:51:12,21706.0,2.0,3375.0,1.81,-1.06,4.668,3.7,25.7,45.0,0.0,359.0,4.2,0.5,29.8,84.9,5763.0,4709.0,1013.0
2026-01-07 16:51:14,2026-01-07 16:51:14,1012.96,+2322,4.44,+2434,2015/10/18,05:56:09,+0000000000,+0000000000,-00017000,00,,,,,,,,,,,,,2026-01-07 16:51:14,00.09,043,-00.06,-00.06,00.04,23.69,43.06,1012.12,-177.5,-179.2,354,,,,,,2026-01-07 16:51:13,21707.0,0.0,300.0,-0.56,0.94,4.63,3.611,25.7,45.0,0.0,359.0,4.2,0.499,29.6,84.9,5763.0,4722.0,1013.0
