merge_timestamp,imet_Timestamp,imet_pressure,imet_temp,imet_rel_hum,imet_hum_temp,imet_date,imet_time,imet_longitude,imet_latitude,imet_altitude,imet_sat,pom_Timestamp,pom_Ozone_ppb,pom_Cell_Temperature_K,pom_Cell_Pressure_torr,pom_Photodiode_Voltage_V,pom_Power_Supply_V,pom_Latitude,pom_Longitude,pom_Altitude_m,pom_GPS_Quality,pom_Date,pom_Time,trisonica_Timestamp,trisonica_Wind_Speed,trisonica_Wind_Direction,trisonica_U_Vector,trisonica_V_Vector,trisonica_W_Vector,trisonica_Temperature,trisonica_Relative_Humidity,trisonica_Pressure,trisonica_Compass_Heading,trisonica_Pitch,trisonica_Roll,spectro_Timestamp,spectro_peak_wavelength,spectro_max_intensity,spectro_mean_intensity,spectro_std_intensity,spectro_total_points,spectro_status,partector2pro_Timestamp,partector2pro_time_since_start_s,partector2pro_charger_diffusion_current_nA,partector2pro_charger_high_voltage_V,partector2pro_electrometer1_mV,partector2pro_electrometer2_mV,partector2pro_electrometer1_amplitude_mV,partector2pro_electrometer2_amplitude_mV,partector2pro_temperature_C,partector2pro_relative_humidity_percent,partector2pro_status,partector2pro_precipitator_voltage_V,partector2pro_battery_voltage_V,partector2pro_flow_lpm,partector2pro_LDSA_um2_cm3,partector2pro_diameter_nm,partector2pro_number_1_cm3,partector2pro_orifice_pressure_Pa,partector2pro_absolute_pressure_mbar
2026-01-12 14:48:42,2026-01-12 14:48:42,1005.12,+2228,3.14,+2340,2015/10/18,00:00:37,+0000000000,+0000000000,-00017000,00,,,,,,,,,,,,,2026-01-12 14:48:42,00.03,079,-00.02,-00.00,00.03,23.03,33.95,1004.33,-179.9,-178.3,207,2026-01-12 14:48:42,627.2004,2108.00,1549.84,24.40,2048,success,,,,,,,,,,,,,,,,,,,
2026-01-12 14:48:43,2026-01-12 14:48:43,1005.12,+2228,3.14,+2337,2015/10/18,00:00:38,+0000000000,+0000000000,-00017000,00,,,,,,,,,,,,,2026-01-12 14:48:43,00.04,034,-00.01,-00.02,00.03,23.01,33.92,1004.32,-180.0,-178.2,208,2026-01-12 14:48:43,627.2004,2091.00,1549.20,24.30,2048,success,2026-01-12 14:48:43,13277.0,0.0,297.0,0.87,0.87,1.506,1.156,24.9,33.0,0.0,98.0,4.18,0.5,9.6,36.4,3680.0,4711.0,1006.0
2026-01-12 14:48:44,2026-01-12 14:48:44,1005.16,+2226,3.14,+2338,2015/10/18,00:00:39,+0000000000,+0000000000,-00017000,00,,,,,,,,,,,,,2026-01-12 14:48:44,00.03,021,-00.00,-00.01,00.03,23.02,33.93,1004.35,-179.9,-178.2,206,2026-01-12 14:48:44,627.2004,2109.00,1548.73,24.52,2048,success,,,,,,,,,,,,,,,,,,,
2026-01-12 14:48:45,2026-01-12 14:48:45,1005.2,+2232,3.14,+2338,2015/10/18,00:00:40,+0000000000,+0000000000,-00017000,00,,,,,,,,,,,,,2026-01-12 14:48:45,00.03,054,-00.02,-00.01,00.02,23.01,33.93,1004.32,-179.9,-178.3,209,2026-01-12 14:48:45,627.2004,2119.00,1548.46,24.63,2048,success,2026-01-12 14:48:45,13279.0,0.0,297.0,0.56,0.5,1.494,1.1,24.9,33.0,0.0,362.0,4.2,0.5,9.5,42.3,3319.0,4701.0,1006.0
2026-01-12 14:48:46,2026-01-12 14:48:46,1005.17,+2228,3.14,+2340,2015/10/18,00:00:41,+0000000000,+0000000000,-00017000,00,,,,,,,,,,,,,2026-01-12 14:48:46,00.03,072,-00.01,-00.00,00.03,23.02,33.98,1004.34,-180.0,-178.3,208,2026-01-12 14:48:46,627.2004,2099.00,1548.31,24.29,2048,success,2026-01-12 14:48:46,13280.0,1.99,3353.0,1.44,-0.19,1.515,1.032,24.8,34.0,0.0,361.0,4.2,0.5,9.7,42.3,3319.0,4705.0,1006.0
2026-01-12 14:48:47,2026-01-12 14:48:47,1005.12,+2228,3.13,+2340,2015/10/18,00:00:42,+0000000000,+0000000000,-00017000,00,,,,,,,,,,,,,2026-01-12 14:48:47,00.03,076,-00.02,-00.00,00.02,23.02,33.92,1004.31,-179.9,-178.3,207,2026-01-12 14:48:47,627.2004,2079.00,1548.68,24.28,2048,success,2026-01-12 14:48:47,13281.0,0.0,297.0,0.62,0.0,1.543,0.891,24.8,34.0,0.0,362.0,4.2,0.5,9.8,42.3,3319.0,4696.0,1006.0
2026-01-12 14:48:48,2026-01-12 14:48:48,1005.09,+2228,3.13,+2340,2015/10/18,00:00:43,+0000000000,+0000000000,-00017000,00,,,,,,,,,,,,,2026-01-12 14:48:48,00.05,030,-00.01,-00.02,00.04,23.02,33.90,1004.35,-180.0,-178.3,209,2026-01-12 14:48:48,627.2004,2082.00,1547.63,24.12,2048,success,2026-01-12 14:48:48,13282.0,2.01,3352.0,1.12,0.19,1.538,0.769,24.8,34.0,0.0,362.0,4.2,0.5,9.8,42.3,3319.0,4733.0,1006.0
2026-01-12 14:48:49,2026-01-12 14:48:49,1005.14,+2228,3.12,+2340,2015/10/18,00:00:44,+0000000000,+0000000000,-00017000,00,,,,,,,,,,,,,2026-01-12 14:48:49,00.04,078,-00.03,-00.01,00.03,23.07,33.90,1004.35,-179.9,-178.3,209,2026-01-12 14:48:49,627.2004,2156.00,1548.13,25.08,2048,success,2026-01-12 14:48:49,13283.0,0.0,298.0,0.31,0.75,1.539,0.808,24.8,33.0,0.0,361.0,4.2,0.5,9.8,42.3,3319.0,4698.0,1006.0
2026-01-12 14:48:50,2026-01-12 14:48:50,1005.14,+2225,3.12,+2341,2015/10/18,00:00:45,+0000000000,+0000000000,-00017000,00,2026-01-12 14:48:50,26.6,309.8,739.3,1.5087,12.2,0000.00000,00000.00000,0.0,0,12/01/26,14:55:02,2026-01-12 14:48:50,00.03,095,-00.02,00.00,00.03,23.11,33.94,1004.32,-180.0,-178.3,207,2026-01-12 14:48:50,627.2004,2104.00,1547.78,24.23,2048,success,2026-01-12 14:48:50,13284.0,1.99,3352.0,1.37,0.31,1.552,0.797,24.8,33.0,0.0,362.0,4.2,0.5,9.9,42.3,3319.0,4700.0,1006.0
2026-01-12 14:48:51,2026-01-12 14:48:51,1005.14,+2225,3.12,+2342,2015/10/18,00:00:46,+0000000000,+0000000000,-00017000,00,,,,,,,,,,,,,2026-01-12 14:48:51,00.04,066,-00.03,-00.01,00.03,23.14,33.90,1004.32,-180.0,-178.3,203,2026-01-12 14:48:51,627.2004,2114.00,1547.90,24.48,2048,success,2026-01-12 14:48:51,13285.0,0.0,297.0,-0.06,0.75,1.51,0.757,24.8,33.0,0.0,721.0,4.2,0.5,9.6,36.6,3985.0,4706.0,1006.0
2026-01-12 14:48:52,2026-01-12 14:48:52,1005.1,+2222,3.12,+2342,2015/10/18,00:00:47,+0000000000,+0000000000,-00017000,00,,,,,,,,,,,,,2026-01-12 14:48:52,00.06,081,-00.04,-00.01,00.05,23.14,33.94,1004.30,-179.9,-178.2,207,2026-01-12 14:48:52,627.2004,2117.00,1547.98,24.61,2048,success,2026-01-12 14:48:52,13286.0,1.99,3355.0,1.19,-0.12,1.514,0.714,24.8,33.0,0.0,721.0,4.2,0.5,9.6,36.6,3985.0,4705.0,1006.0
2026-01-12 14:48:53,2026-01-12 14:48:53,1005.12,+2225,3.12,+2342,2015/10/18,00:00:48,+0000000000,+0000000000,-00017000,00,,,,,,,,,,,,,2026-01-12 14:48:53,00.04,077,-00.03,-00.01,00.03,23.16,33.94,1004.31,-179.9,-178.2,209,2026-01-12 14:48:53,627.2004,2078.00,1547.78,24.28,2048,success,2026-01-12 14:48:53,13287.0,0.0,294.0,0.81,0.37,1.493,0.564,24.8,33.0,0.0,721.0,4.2,0.5,9.5,36.6,3985.0,4702.0,1006.0
2026-01-12 14:48:54,2026-01-12 14:48:54,1005.1,+2222,3.12,+2345,2015/10/18,00:00:49,+0000000000,+0000000000,-00017000,00,,,,,,,,,,,,,2026-01-12 14:48:54,00.04,095,-00.03,00.00,00.03,23.18,33.92,1004.34,-179.9,-178.3,206,2026-01-12 14:48:54,627.2004,2087.00,1547.63,24.40,2048,success,2026-01-12 14:48:54,13288.0,1.99,3352.0,1.31,0.06,1.431,0.479,24.8,33.0,0.0,719.0,4.2,0.499,9.1,36.6,3985.0,4706.0,1006.0
2026-01-12 14:48:55,2026-01-12 14:48:55,1005.12,+2224,3.12,+2344,2015/10/18,00:00:50,+0000000000,+0000000000,-00017000,00,,,,,,,,,,,,,2026-01-12 14:48:55,00.07,075,-00.05,-00.01,00.04,23.17,33.90,1004.33,-179.9,-178.2,204,2026-01-12 14:48:55,627.2004,2100.00,1547.36,24.39,2048,success,2026-01-12 14:48:55,13289.0,0.0,293.0,0.44,0.56,1.428,0.464,24.8,34.0,0.0,721.0,4.2,0.5,9.1,36.6,3985.0,4701.0,1006.0
2026-01-12 14:48:56,2026-01-12 14:48:56,1005.13,+2225,3.12,+2344,2015/10/18,00:00:51,+0000000000,+0000000000,-00017000,00,,,,,,,,,,,,,2026-01-12 14:48:56,00.06,059,-00.04,-00.02,00.04,23.19,33.91,1004.30,-179.9,-178.2,209,2026-01-12 14:48:56,627.2004,2109.00,1546.95,24.46,2048,success,2026-01-12 14:48:56,13290.0,1.98,3353.0,1.12,0.31,1.425,0.442,24.8,34.0,0.0,720.0,4.19,0.5,9.1,36.6,3985.0,4702.0,1005.0
2026-01-12 14:48:57,2026-01-12 14:48:57,1005.12,+2224,3.12,+2344,2015/10/18,00:00:52,+0000000000,+0000000000,-00017000,00,,,,,,,,,,,,,2026-01-12 14:48:57,00.04,060,-00.03,-00.02,00.02,23.25,33.93,1004.31,-179.9,-178.2,210,2026-01-12 14:48:57,627.2004,2111.00,1547.04,24.39,2048,success,2026-01-12 14:48:57,13291.0,0.0,300.0,0.12,0.12,1.471,0.394,24.8,34.0,0.0,1200.0,4.2,0.5,9.4,32.4,4124.0,4706.0,1005.0
2026-01-12 14:48:58,2026-01-12 14:48:58,1005.13,+2227,3.12,+2345,2015/10/18,00:00:53,+0000000000,+0000000000,-00017000,00,,,,,,,,,,,,,2026-01-12 14:48:58,00.05,052,-00.03,-00.03,00.02,23.29,33.87,1004.28,-179.9,-178.2,210,2026-01-12 14:48:58,627.2004,2116.00,1546.68,24.51,2048,success,2026-01-12 14:48:58,13292.0,2.0,3352.0,1.12,0.0,1.454,0.296,24.8,34.0,0.0,1200.0,4.2,0.5,9.3,32.4,4124.0,4702.0,1005.0
2026-01-12 14:48:59,2026-01-12 14:48:59,1005.1,+2228,3.12,+2346,2015/10/18,00:00:54,+0000000000,+0000000000,-00017000,00,,,,,,,,,,,,,2026-01-12 14:48:59,00.05,076,-00.04,-00.01,00.04,23.32,33.93,1004.30,-179.9,-178.2,207,2026-01-12 14:48:59,627.2004,2140.00,1547.13,24.90,2048,success,2026-01-12 14:48:59,13293.0,0.0,298.0,0.37,0.19,1.459,0.209,24.8,34.0,0.0,1200.0,4.2,0.5,9.3,32.4,4124.0,4696.0,1006.0
2026-01-12 14:49:00,2026-01-12 14:49:00,1005.11,+2226,3.12,+2346,2015/10/18,00:00:55,+0000000000,+0000000000,-00017000,00,2026-01-12 14:49:00,27.8,309.8,738.5,1.5086,12.2,0000.00000,00000.00000,0.0,0,12/01/26,14:55:12,2026-01-12 14:49:00,00.04,116,-00.03,00.02,00.03,23.30,33.93,1004.33,-180.0,-178.2,208,2026-01-12 14:49:00,627.2004,2084.00,1547.00,24.15,2048,success,2026-01-12 14:49:00,13294.0,2.0,3355.0,1.5,-0.06,1.519,0.155,24.8,34.0,0.0,1200.0,4.2,0.5,9.7,32.4,4124.0,4698.0,1006.0
2026-01-12 14:49:01,2026-01-12 14:49:01,1005.07,+2228,3.12,+2346,2015/10/18,00:00:56,+0000000000,+0000000000,-00017000,00,,,,,,,,,,,,,2026-01-12 14:49:01,00.06,066,-00.05,-00.02,00.03,23.26,33.93,1004.31,-179.9,-178.2,208,2026-01-12 14:49:01,627.2004,2132.00,1546.41,24.91,2048,success,2026-01-12 14:49:01,13295.0,0.0,297.0,0.62,0.25,1.52,0.138,24.8,33.0,0.0,1200.0,4.19,0.5,9.7,32.4,4124.0,4704.0,1006.0
2026-01-12 14:49:02,2026-01-12 14:49:02,1005.14,+2229,3.12,+2348,2015/10/18,00:00:57,+0000000000,+0000000000,-00017000,00,,,,,,,,,,,,,2026-01-12 14:49:02,00.05,087,-00.04,-00.00,00.03,23.22,33.93,1004.33,-179.9,-178.3,209,2026-01-12 14:49:02,627.2004,2119.00,1546.36,24.58,2048,success,2026-01-12 14:49:02,13296.0,1.99,3353.0,1.5,-0.25,1.595,0.136,24.8,33.0,0.0,1198.0,4.2,0.5,10.2,32.4,4124.0,4713.0,1006.0
2026-01-12 14:49:03,2026-01-12 14:49:03,1005.09,+2228,3.12,+2348,2015/10/18,00:00:58,+0000000000,+0000000000,-00017000,00,,,,,,,,,,,,,2026-01-12 14:49:03,00.06,068,-00.04,-00.01,00.04,23.19,33.92,1004.30,-179.9,-178.3,209,2026-01-12 14:49:03,627.2004,2114.00,1546.85,24.30,2048,success,2026-01-12 14:49:03,13297.0,0.0,297.0,0.81,1.19,1.599,0.347,24.8,33.0,0.0,83.0,4.2,0.5,10.2,33.7,4238.0,4699.0,1006.0
2026-01-12 14:49:04,2026-01-12 14:49:04,1005.12,+2226,3.12,+2349,2015/10/18,00:00:59,+0000000000,+0000000000,-00017000,00,,,,,,,,,,,,,2026-01-12 14:49:04,00.04,057,-00.02,-00.01,00.02,23.18,33.93,1004.32,-180.0,-178.3,208,2026-01-12 14:49:04,627.2004,2115.00,1545.96,24.50,2048,success,2026-01-12 14:49:04,13298.0,1.99,3352.0,1.37,0.0,1.565,0.582,24.8,34.0,0.0,100.0,4.2,0.5,10.0,33.7,4238.0,4704.0,1006.0
2026-01-12 14:49:05,2026-01-12 14:49:05,1005.11,+2228,3.12,+2349,2015/10/18,00:01:00,+0000000000,+0000000000,-00017000,00,,,,,,,,,,,,,2026-01-12 14:49:05,00.03,068,-00.02,-00.01,00.02,23.20,33.92,1004.30,-179.9,-178.3,210,2026-01-12 14:49:05,627.2004,2097.00,1545.88,24.15,2048,success,2026-01-12 14:49:05,13299.0,0.0,298.0,0.31,0.87,1.532,0.861,24.8,34.0,0.0,100.0,4.19,0.5,9.8,33.7,4238.0,4698.0,1006.0
2026-01-12 14:49:06,2026-01-12 14:49:06,1005.13,+2228,3.12,+2351,2015/10/18,00:01:01,+0000000000,+0000000000,-00017000,00,,,,,,,,,,,,,2026-01-12 14:49:06,00.03,121,-00.01,00.00,00.03,23.25,33.94,1004.34,-179.9,-178.3,207,2026-01-12 14:49:06,627.2004,2104.00,1546.40,24.26,2048,success,2026-01-12 14:49:06,13300.0,1.99,3353.0,1.69,-0.37,1.488,1.098,24.8,34.0,0.0,100.0,4.2,0.5,9.5,33.7,4238.0,4700.0,1006.0
2026-01-12 14:49:07,2026-01-12 14:49:07,1005.15,+2224,3.12,+2349,2015/10/18,00:01:02,+0000000000,+0000000000,-00017000,00,,,,,,,,,,,,,2026-01-12 14:49:07,00.04,086,-00.03,-00.00,00.02,23.25,33.94,1004.35,-180.0,-178.2,207,2026-01-12 14:49:07,627.2004,2090.00,1546.44,23.97,2048,success,2026-01-12 14:49:07,13301.0,0.0,297.0,0.5,1.0,1.487,1.192,24.8,34.0,0.0,100.0,4.2,0.5,9.5,33.7,4238.0,4734.0,1006.0
2026-01-12 14:49:08,2026-01-12 14:49:08,1005.12,+2229,3.12,+2352,2015/10/18,00:01:03,+0000000000,+0000000000,-00017000,00,,,,,,,,,,,,,2026-01-12 14:49:08,00.03,121,-00.01,00.01,00.02,23.22,33.92,1004.35,-179.9,-178.2,207,2026-01-12 14:49:08,627.2004,2112.00,1546.52,24.70,2048,success,2026-01-12 14:49:08,13302.0,2.01,3352.0,0.87,-0.62,1.446,1.183,24.8,34.0,0.0,100.0,4.2,0.5,9.2,33.7,4238.0,4708.0,1006.0
2026-01-12 14:49:10,2026-01-12 14:49:09,1005.15,+2229,3.12,+2352,2015/10/18,00:01:04,+0000000000,+0000000000,-00017000,00,,,,,,,,,,,,,2026-01-12 14:49:09,00.03,066,-00.03,-00.01,00.01,23.17,33.96,1004.36,-179.9,-178.3,206,2026-01-12 14:49:09,627.2004,2116.00,1545.95,24.43,2048,success,2026-01-12 14:49:09,13303.0,0.0,301.0,0.5,0.19,1.411,1.083,24.8,34.0,0.0,362.0,4.2,0.499,9.0,31.4,4117.0,4699.0,1006.0
2026-01-12 14:49:11,2026-01-12 14:49:10,1005.17,+2229,3.13,+2352,2015/10/18,00:01:05,+0000000000,+0000000000,-00017000,00,2026-01-12 14:49:10,28.9,309.8,739.6,1.5086,12.2,0000.00000,00000.00000,0.0,0,12/01/26,14:55:22,2026-01-12 14:49:10,00.02,126,-00.02,00.01,00.01,23.19,33.94,1004.38,-180.0,-178.3,209,2026-01-12 14:49:10,627.2004,2133.00,1546.50,24.63,2048,success,2026-01-12 14:49:10,13304.0,1.99,3356.0,1.19,-0.19,1.371,0.968,24.8,34.0,0.0,360.0,4.2,0.5,8.7,31.4,4117.0,4700.0,1006.0
2026-01-12 14:49:12,2026-01-12 14:49:11,1005.14,+2224,3.13,+2353,2015/10/18,00:01:06,+0000000000,+0000000000,-00017000,00,,,,,,,,,,,,,2026-01-12 14:49:11,00.05,134,-00.02,00.02,00.04,23.20,33.92,1004.37,-180.0,-178.3,208,2026-01-12 14:49:11,627.2004,2097.00,1547.05,24.38,2048,success,2026-01-12 14:49:11,13305.0,0.0,298.0,0.5,0.56,1.392,0.846,24.8,34.0,0.0,361.0,4.2,0.5,8.9,31.4,4117.0,4705.0,1006.0
2026-01-12 14:49:13,2026-01-12 14:49:12,1005.19,+2229,3.13,+2353,2015/10/18,00:01:07,+0000000000,+0000000000,-00017000,00,,,,,,,,,,,,,2026-01-12 14:49:12,00.04,124,-00.03,00.02,00.03,23.22,33.93,1004.36,-180.0,-178.3,209,2026-01-12 14:49:12,627.2004,2083.00,1545.85,24.21,2048,success,2026-01-12 14:49:12,13306.0,1.99,3353.0,1.5,-0.12,1.453,0.799,24.8,34.0,0.0,361.0,4.19,0.499,9.3,31.4,4117.0,4731.0,1006.0
2026-01-12 14:49:14,2026-01-12 14:49:13,1005.14,+2231,3.13,+2353,2015/10/18,00:01:08,+0000000000,+0000000000,-00017000,00,,,,,,,,,,,,,2026-01-12 14:49:13,00.04,140,-00.02,00.03,00.01,23.22,33.93,1004.39,-179.9,-178.3,207,2026-01-12 14:49:13,627.2004,2112.00,1545.85,24.31,2048,success,2026-01-12 14:49:13,13307.0,0.0,297.0,0.25,1.0,1.496,0.832,24.8,34.0,0.0,360.0,4.2,0.5,9.5,31.4,4117.0,4699.0,1006.0
2026-01-12 14:49:15,2026-01-12 14:49:14,1005.19,+2230,3.13,+2355,2015/10/18,00:01:09,+0000000000,+0000000000,-00017000,00,,,,,,,,,,,,,2026-01-12 14:49:14,00.05,090,-00.04,00.00,00.02,23.22,33.93,1004.39,-180.0,-178.3,206,2026-01-12 14:49:14,627.2004,2106.00,1546.04,24.16,2048,success,2026-01-12 14:49:14,13308.0,1.98,3353.0,1.69,-0.19,1.49,0.863,24.8,34.0,0.0,359.0,4.2,0.5,9.5,31.4,4117.0,4699.0,1006.0
2026-01-12 14:49:16,2026-01-12 14:49:15,1005.17,+2228,3.12,+2356,2015/10/18,00:01:10,+0000000000,+0000000000,-00017000,00,,,,,,,,,,,,,2026-01-12 14:49:15,00.05,095,-00.04,00.00,00.03,23.25,33.92,1004.37,-180.0,-178.3,206,2026-01-12 14:49:15,627.2004,2094.00,1545.49,24.15,2048,success,2026-01-12 14:49:15,13309.0,0.0,296.0,0.94,0.06,1.444,0.761,24.8,34.0,0.0,720.0,4.2,0.5,9.2,40.3,3228.0,4700.0,1006.0
2026-01-12 14:49:17,2026-01-12 14:49:16,1005.17,+2230,3.13,+2356,2015/10/18,00:01:11,+0000000000,+0000000000,-00017000,00,,,,,,,,,,,,,2026-01-12 14:49:16,00.06,125,-00.04,00.03,00.03,23.30,33.92,1004.35,-179.9,-178.2,207,2026-01-12 14:49:16,627.2004,2115.00,1545.88,24.76,2048,success,2026-01-12 14:49:16,13310.0,1.99,3352.0,1.5,0.31,1.409,0.616,24.8,34.0,0.0,719.0,4.18,0.5,9.0,40.3,3228.0,4708.0,1006.0
2026-01-12 14:49:18,2026-01-12 14:49:17,1005.18,+2231,3.13,+2356,2015/10/18,00:01:12,+0000000000,+0000000000,-00017000,00,,,,,,,,,,,,,2026-01-12 14:49:17,00.06,102,-00.05,00.01,00.03,23.32,33.92,1004.39,-179.9,-178.2,205,2026-01-12 14:49:17,627.2004,2087.00,1545.40,24.28,2048,success,2026-01-12 14:49:17,13311.0,0.0,294.0,0.5,0.81,1.381,0.501,24.8,34.0,0.0,718.0,4.2,0.499,8.8,40.3,3228.0,4688.0,1006.0
2026-01-12 14:49:19,2026-01-12 14:49:18,1005.17,+2228,3.12,+2357,2015/10/18,00:01:13,+0000000000,+0000000000,-00017000,00,,,,,,,,,,,,,2026-01-12 14:49:18,00.08,091,-00.08,00.00,00.04,23.30,33.94,1004.38,-179.9,-178.3,206,2026-01-12 14:49:18,627.2004,2097.00,1545.91,24.36,2048,success,2026-01-12 14:49:18,13312.0,1.99,3353.0,0.81,0.69,1.432,0.409,24.8,34.0,0.0,720.0,4.2,0.5,9.1,40.3,3228.0,4698.0,1006.0
2026-01-12 14:49:20,2026-01-12 14:49:19,1005.19,+2232,3.12,+2357,2015/10/18,00:01:14,+0000000000,+0000000000,-00017000,00,,,,,,,,,,,,,2026-01-12 14:49:19,00.08,082,-00.08,-00.01,00.02,23.27,33.93,1004.38,-180.0,-178.2,204,2026-01-12 14:49:19,627.2004,2103.00,1545.58,24.09,2048,success,2026-01-12 14:49:19,13313.0,0.0,298.0,0.44,0.25,1.408,0.348,24.8,34.0,0.0,720.0,4.19,0.5,9.0,40.3,3228.0,4698.0,1006.0
2026-01-12 14:49:21,2026-01-12 14:49:20,1005.17,+2228,3.12,+2359,2015/10/18,00:01:15,+0000000000,+0000000000,-00017000,00,2026-01-12 14:49:20,28.7,309.8,738.7,1.5086,12.2,0000.00000,00000.00000,0.0,0,12/01/26,14:55:32,2026-01-12 14:49:20,00.06,095,-00.05,00.00,00.01,23.25,33.97,1004.39,-180.0,-178.3,205,2026-01-12 14:49:20,627.2004,2084.00,1545.68,24.10,2048,success,2026-01-12 14:49:20,13314.0,2.0,3353.0,1.44,0.62,1.402,0.369,24.8,34.0,0.0,719.0,4.2,0.5,8.9,40.3,3228.0,4703.0,1006.0
2026-01-12 14:49:22,2026-01-12 14:49:21,1005.14,+2232,3.12,+2360,2015/10/18,00:01:16,+0000000000,+0000000000,-00017000,00,,,,,,,,,,,,,2026-01-12 14:49:21,00.04,102,-00.03,00.01,00.03,23.24,33.96,1004.38,-180.0,-178.3,207,2026-01-12 14:49:21,627.2004,2090.00,1545.23,24.35,2048,success,2026-01-12 14:49:21,13315.0,0.0,300.0,0.62,0.37,1.337,0.285,24.8,34.0,0.0,1200.0,4.2,0.5,8.5,42.7,2888.0,4701.0,1006.0
2026-01-12 14:49:23,2026-01-12 14:49:22,1005.2,+2234,3.12,+2359,2015/10/18,00:01:17,+0000000000,+0000000000,-00017000,00,,,,,,,,,,,,,2026-01-12 14:49:22,00.03,061,-00.02,-00.01,00.02,23.23,33.93,1004.37,-179.9,-178.2,206,2026-01-12 14:49:22,627.2004,2096.00,1545.04,24.12,2048,success,2026-01-12 14:49:22,13316.0,1.98,3352.0,0.94,0.44,1.401,0.208,24.8,34.0,0.0,1200.0,4.2,0.499,8.9,42.7,2888.0,4670.0,1006.0
2026-01-12 14:49:24,2026-01-12 14:49:23,1005.18,+2232,3.12,+2360,2015/10/18,00:01:18,+0000000000,+0000000000,-00017000,00,,,,,,,,,,,,,2026-01-12 14:49:23,00.03,346,00.00,-00.00,00.03,23.25,33.93,1004.39,-179.9,-178.3,211,2026-01-12 14:49:23,627.2004,2101.00,1544.69,24.26,2048,success,2026-01-12 14:49:23,13317.0,0.0,297.0,0.62,0.0,1.453,0.189,24.8,34.0,0.0,1199.0,4.2,0.5,9.3,42.7,2888.0,4705.0,1006.0
2026-01-12 14:49:25,2026-01-12 14:49:24,1005.23,+2231,3.12,+2360,2015/10/18,00:01:19,+0000000000,+0000000000,-00017000,00,,,,,,,,,,,,,2026-01-12 14:49:24,00.03,082,-00.02,-00.00,00.02,23.26,33.89,1004.39,-180.0,-178.2,206,2026-01-12 14:49:25,627.2004,2105.00,1545.35,24.30,2048,success,2026-01-12 14:49:24,13318.0,1.98,3352.0,1.0,0.37,1.469,0.107,24.8,34.0,0.0,1199.0,4.2,0.5,9.4,42.7,2888.0,4706.0,1006.0
2026-01-12 14:49:26,2026-01-12 14:49:25,1005.2,+2230,3.11,+2360,2015/10/18,00:01:20,+0000000000,+0000000000,-00017000,00,,,,,,,,,,,,,2026-01-12 14:49:25,00.04,079,-00.04,-00.01,00.01,23.26,33.97,1004.40,-179.9,-178.3,206,2026-01-12 14:49:25,627.2004,2081.00,1544.79,24.05,2048,success,2026-01-12 14:49:25,13319.0,0.0,293.0,0.44,0.5,1.575,0.154,24.8,34.0,0.0,1200.0,4.2,0.5,10.0,42.7,2888.0,4709.0,1006.0
2026-01-12 14:49:27,2026-01-12 14:49:26,1005.17,+2230,3.1,+2362,2015/10/18,00:01:21,+0000000000,+0000000000,-00017000,00,,,,,,,,,,,,,2026-01-12 14:49:26,00.05,090,-00.05,-00.00,00.02,23.25,33.93,1004.40,-180.0,-178.2,208,2026-01-12 14:49:26,627.2004,2098.00,1544.79,24.49,2048,success,2026-01-12 14:49:26,13320.0,2.0,3353.0,1.0,0.31,1.508,0.159,24.8,34.0,0.0,1200.0,4.19,0.5,9.6,42.7,2888.0,4701.0,1006.0
2026-01-12 14:49:28,2026-01-12 14:49:27,1005.2,+2231,3.1,+2362,2015/10/18,00:01:22,+0000000000,+0000000000,-00017000,00,,,,,,,,,,,,,2026-01-12 14:49:27,00.05,095,-00.05,00.00,00.02,23.22,33.94,1004.39,-180.0,-178.2,206,2026-01-12 14:49:27,627.2004,2086.00,1544.82,24.13,2048,success,2026-01-12 14:49:27,13321.0,0.0,296.0,0.37,1.37,1.476,0.284,24.8,34.0,0.0,85.0,4.2,0.499,9.4,38.6,3502.0,4673.0,1006.0
2026-01-12 14:49:29,2026-01-12 14:49:28,1005.19,+2231,3.09,+2362,2015/10/18,00:01:23,+0000000000,+0000000000,-00017000,00,,,,,,,,,,,,,2026-01-12 14:49:28,00.05,143,-00.03,00.03,00.03,23.21,33.93,1004.41,-180.0,-178.3,210,2026-01-12 14:49:28,627.2004,2102.00,1545.08,24.11,2048,success,2026-01-12 14:49:28,13322.0,1.98,3357.0,0.94,-0.31,1.458,0.476,24.8,34.0,0.0,99.0,4.2,0.5,9.3,38.6,3502.0,4701.0,1006.0
2026-01-12 14:49:30,2026-01-12 14:49:29,1005.2,+2230,3.08,+2362,2015/10/18,00:01:24,+0000000000,+0000000000,-00017000,00,,,,,,,,,,,,,2026-01-12 14:49:29,00.05,117,-00.03,00.01,00.04,23.19,33.98,1004.41,-180.0,-178.2,207,2026-01-12 14:49:29,627.2004,2108.00,1544.56,24.37,2048,success,2026-01-12 14:49:29,13323.0,0.0,290.0,0.56,0.94,1.411,0.79,24.8,34.0,0.0,100.0,4.2,0.5,9.0,38.6,3502.0,4706.0,1006.0
2026-01-12 14:49:31,2026-01-12 14:49:30,1005.2,+2230,3.08,+2363,2015/10/18,00:01:25,+0000000000,+0000000000,-00017000,00,2026-01-12 14:49:30,27.3,309.8,739.7,1.5086,12.2,0000.00000,00000.00000,0.0,0,12/01/26,14:55:42,2026-01-12 14:49:30,00.03,145,-00.01,00.01,00.03,23.12,33.98,1004.38,-179.9,-178.3,206,2026-01-12 14:49:30,627.2004,2094.00,1544.37,23.94,2048,success,2026-01-12 14:49:30,13324.0,1.99,3353.0,1.19,-0.5,1.408,1.08,24.8,34.0,0.0,100.0,4.19,0.5,9.0,38.6,3502.0,4699.0,1006.0
2026-01-12 14:49:32,2026-01-12 14:49:31,1005.17,+2229,3.07,+2363,2015/10/18,00:01:26,+0000000000,+0000000000,-00017000,00,,,,,,,,,,,,,2026-01-12 14:49:32,00.05,147,-00.02,00.02,00.04,23.06,33.93,1004.38,-179.9,-178.2,206,2026-01-12 14:49:31,627.2004,2103.00,1545.04,24.46,2048,success,2026-01-12 14:49:31,13325.0,0.0,296.0,0.62,1.12,1.418,1.18,24.8,33.0,0.0,99.0,4.2,0.5,9.0,38.6,3502.0,4704.0,1006.0
2026-01-12 14:49:33,2026-01-12 14:49:32,1005.15,+2232,3.07,+2364,2015/10/18,00:01:27,+0000000000,+0000000000,-00017000,00,,,,,,,,,,,,,2026-01-12 14:49:33,00.05,117,-00.03,00.02,00.02,23.06,33.97,1004.40,-179.9,-178.2,208,2026-01-12 14:49:33,627.2004,2100.00,1544.05,24.01,2048,success,2026-01-12 14:49:32,13326.0,1.99,3355.0,1.25,-0.31,1.404,1.2,24.8,33.0,0.0,99.0,4.2,0.5,8.9,38.6,3502.0,4703.0,1006.0
2026-01-12 14:49:34,2026-01-12 14:49:33,1005.17,+2231,3.07,+2364,2015/10/18,00:01:28,+0000000000,+0000000000,-00017000,00,,,,,,,,,,,,,2026-01-12 14:49:34,00.03,108,-00.03,00.01,00.02,23.12,33.98,1004.39,-180.0,-178.3,206,2026-01-12 14:49:33,627.2004,2106.00,1544.96,24.13,2048,success,2026-01-12 14:49:33,13327.0,0.0,292.0,0.31,0.12,1.426,1.056,24.8,33.0,0.0,359.0,4.2,0.5,9.1,46.2,2950.0,4704.0,1006.0
2026-01-12 14:49:35,2026-01-12 14:49:34,1005.14,+2234,3.07,+2366,2015/10/18,00:01:29,+0000000000,+0000000000,-00017000,00,,,,,,,,,,,,,2026-01-12 14:49:35,00.03,103,-00.03,00.01,00.02,23.16,33.97,1004.40,-179.9,-178.2,206,2026-01-12 14:49:34,627.2004,2121.00,1544.00,24.37,2048,success,2026-01-12 14:49:34,13328.0,2.0,3355.0,0.81,0.25,1.467,0.978,24.8,34.0,0.0,360.0,4.2,0.5,9.3,46.2,2950.0,4701.0,1006.0
2026-01-12 14:49:36,2026-01-12 14:49:35,1005.16,+2235,3.08,+2366,2015/10/18,00:01:30,+0000000000,+0000000000,-00017000,00,,,,,,,,,,,,,2026-01-12 14:49:36,00.02,119,-00.01,00.01,00.02,23.16,33.98,1004.38,-179.9,-178.2,205,2026-01-12 14:49:36,627.2004,2088.00,1544.01,23.90,2048,success,2026-01-12 14:49:35,13329.0,0.0,297.0,0.37,0.31,1.464,0.899,24.8,34.0,0.0,359.0,4.2,0.499,9.3,46.2,2950.0,4704.0,1006.0
2026-01-12 14:49:37,2026-01-12 14:49:36,1005.19,+2232,3.08,+2366,2015/10/18,00:01:31,+0000000000,+0000000000,-00017000,00,,,,,,,,,,,,,2026-01-12 14:49:37,00.03,042,-00.01,-00.01,00.03,23.18,34.01,1004.40,-179.9,-178.2,209,2026-01-12 14:49:36,627.2004,2070.00,1544.00,24.04,2048,success,2026-01-12 14:49:36,13330.0,2.01,3353.0,1.75,0.31,1.486,0.865,24.8,34.0,0.0,362.0,4.2,0.5,9.5,46.2,2950.0,4702.0,1006.0
2026-01-12 14:49:38,2026-01-12 14:49:37,1005.18,+2235,3.08,+2367,2015/10/18,00:01:32,+0000000000,+0000000000,-00017000,00,,,,,,,,,,,,,2026-01-12 14:49:38,00.05,113,-00.02,00.01,00.04,23.20,34.00,1004.37,-180.0,-178.2,208,2026-01-12 14:49:37,627.2004,2112.00,1543.44,24.29,2048,success,2026-01-12 14:49:37,13331.0,0.0,301.0,0.94,0.19,1.478,0.895,24.8,34.0,0.0,361.0,4.2,0.5,9.4,46.2,2950.0,4701.0,1006.0
2026-01-12 14:49:39,2026-01-12 14:49:38,1005.16,+2234,3.08,+2367,2015/10/18,00:01:33,+0000000000,+0000000000,-00017000,00,,,,,,,,,,,,,2026-01-12 14:49:39,00.04,066,-00.03,-00.01,00.03,23.22,34.00,1004.35,-179.9,-178.3,205,2026-01-12 14:49:38,627.2004,2090.00,1543.89,23.97,2048,success,2026-01-12 14:49:38,13332.0,1.98,3352.0,1.31,-0.19,1.5,0.886,24.8,34.0,0.0,361.0,4.2,0.5,9.6,46.2,2950.0,4701.0,1006.0
2026-01-12 14:49:40,2026-01-12 14:49:39,1005.1,+2231,3.07,+2368,2015/10/18,00:01:34,+0000000000,+0000000000,-00017000,00,,,,,,,,,,,,,2026-01-12 14:49:40,00.06,110,-00.04,00.01,00.04,23.25,34.00,1004.40,-179.9,-178.3,207,2026-01-12 14:49:39,627.2004,2077.00,1543.38,23.73,2048,success,2026-01-12 14:49:39,13333.0,0.0,297.0,0.44,0.12,1.482,0.785,24.8,34.0,0.0,721.0,4.2,0.5,9.4,48.1,2954.0,4699.0,1006.0
2026-01-12 14:49:41,2026-01-12 14:49:40,1005.09,+2232,3.06,+2368,2015/10/18,00:01:35,+0000000000,+0000000000,-00017000,00,2026-01-12 14:49:40,26.3,309.8,739.7,1.5085,12.2,0000.00000,00000.00000,0.0,0,12/01/26,14:55:52,2026-01-12 14:49:41,00.06,088,-00.05,-00.00,00.03,23.25,33.96,1004.36,-179.9,-178.2,204,2026-01-12 14:49:41,627.2004,2104.00,1543.43,24.12,2048,success,2026-01-12 14:49:40,13334.0,1.98,3357.0,1.19,0.69,1.453,0.644,24.8,34.0,0.0,721.0,4.2,0.499,9.3,48.1,2954.0,4698.0,1006.0
2026-01-12 14:49:42,2026-01-12 14:49:41,1005.14,+2231,3.06,+2367,2015/10/18,00:01:36,+0000000000,+0000000000,-00017000,00,,,,,,,,,,,,,2026-01-12 14:49:42,00.03,116,-00.02,00.01,00.01,23.24,33.97,1004.33,-180.0,-178.2,207,2026-01-12 14:49:41,627.2004,2119.00,1543.42,24.50,2048,success,2026-01-12 14:49:41,13335.0,0.0,297.0,0.94,0.12,1.464,0.486,24.8,34.0,0.0,721.0,4.2,0.5,9.3,48.1,2954.0,4698.0,1006.0
2026-01-12 14:49:43,2026-01-12 14:49:42,1005.12,+2231,3.05,+2370,2015/10/18,00:01:37,+0000000000,+0000000000,-00017000,00,,,,,,,,,,,,,2026-01-12 14:49:43,00.04,087,-00.03,-00.00,00.02,23.25,33.96,1004.34,-180.0,-178.3,205,2026-01-12 14:49:42,627.2004,2076.00,1543.70,23.63,2048,success,2026-01-12 14:49:42,13336.0,1.99,3353.0,0.87,0.0,1.402,0.351,24.8,34.0,0.0,720.0,4.19,0.5,8.9,48.1,2954.0,4699.0,1006.0
2026-01-12 14:49:44,2026-01-12 14:49:43,1005.13,+2235,3.04,+2368,2015/10/18,00:01:38,+0000000000,+0000000000,-00017000,00,,,,,,,,,,,,,2026-01-12 14:49:44,00.04,070,-00.03,-00.01,00.03,23.24,33.93,1004.35,-180.0,-178.2,206,2026-01-12 14:49:44,627.2004,2103.00,1543.03,24.60,2048,success,2026-01-12 14:49:43,13337.0,0.0,294.0,0.56,0.06,1.424,0.344,24.8,34.0,0.0,721.0,4.2,0.5,9.1,48.1,2954.0,4707.0,1006.0
2026-01-12 14:49:45,2026-01-12 14:49:44,1005.13,+2233,3.04,+2370,2015/10/18,00:01:39,+0000000000,+0000000000,-00017000,00,,,,,,,,,,,,,2026-01-12 14:49:45,00.04,085,-00.03,-00.00,00.03,23.23,33.94,1004.32,-179.9,-178.2,207,2026-01-12 14:49:44,627.2004,2083.00,1543.86,23.91,2048,success,2026-01-12 14:49:44,13338.0,1.98,3352.0,1.31,0.12,1.411,0.372,24.8,34.0,0.0,721.0,4.19,0.5,9.0,48.1,2954.0,4700.0,1006.0
2026-01-12 14:49:46,2026-01-12 14:49:45,1005.1,+2231,3.03,+2371,2015/10/18,00:01:40,+0000000000,+0000000000,-00017000,00,,,,,,,,,,,,,2026-01-12 14:49:46,00.07,107,-00.05,00.02,00.04,23.20,33.97,1004.33,-180.0,-178.3,206,2026-01-12 14:49:45,627.2004,2108.00,1543.18,23.25,2048,success,2026-01-12 14:49:45,13339.0,0.0,298.0,0.81,0.62,1.427,0.274,24.8,34.0,0.0,1200.0,4.2,0.499,9.1,48.0,2897.0,4692.0,1006.0
2026-01-12 14:49:47,2026-01-12 14:49:46,1005.15,+2231,3.03,+2370,2015/10/18,00:01:41,+0000000000,+0000000000,-00017000,00,,,,,,,,,,,,,2026-01-12 14:49:47,00.04,101,-00.02,00.00,00.04,23.21,33.97,1004.32,-180.0,-178.2,204,2026-01-12 14:49:46,627.2004,2071.00,1543.45,23.03,2048,success,2026-01-12 14:49:46,13340.0,2.01,3353.0,1.12,0.44,1.455,0.203,24.8,34.0,0.0,1200.0,4.2,0.5,9.3,48.0,2897.0,4705.0,1006.0
2026-01-12 14:49:48,2026-01-12 14:49:47,1005.08,+2235,3.04,+2371,2015/10/18,00:01:42,+0000000000,+0000000000,-00017000,00,,,,,,,,,,,,,2026-01-12 14:49:48,00.05,136,-00.02,00.02,00.04,23.17,34.02,1004.34,-179.9,-178.2,206,2026-01-12 14:49:47,627.2004,2106.00,1543.14,23.54,2048,success,2026-01-12 14:49:47,13341.0,0.0,297.0,0.44,0.31,1.466,0.144,24.8,34.0,0.0,1200.0,4.2,0.5,9.3,48.0,2897.0,4701.0,1006.0
2026-01-12 14:49:49,2026-01-12 14:49:48,1005.17,+2235,3.04,+2373,2015/10/18,00:01:43,+0000000000,+0000000000,-00017000,00,,,,,,,,,,,,,2026-01-12 14:49:49,00.04,067,-00.03,-00.01,00.03,23.17,33.97,1004.33,-179.9,-178.3,206,2026-01-12 14:49:49,627.2004,2086.00,1543.73,23.16,2048,success,2026-01-12 14:49:48,13342.0,2.0,3351.0,1.25,0.37,1.545,0.092,24.8,34.0,0.0,1199.0,4.2,0.5,9.8,48.0,2897.0,4718.0,1006.0
2026-01-12 14:49:50,2026-01-12 14:49:49,1005.17,+2236,3.04,+2373,2015/10/18,00:01:44,+0000000000,+0000000000,-00017000,00,,,,,,,,,,,,,2026-01-12 14:49:50,00.04,101,-00.03,00.01,00.03,23.19,34.00,1004.31,-180.0,-178.2,206,2026-01-12 14:49:49,627.2004,2076.00,1543.77,23.01,2048,success,2026-01-12 14:49:49,13343.0,0.0,297.0,0.37,0.75,1.531,0.188,24.9,33.0,0.0,1200.0,4.2,0.5,9.8,48.0,2897.0,4698.0,1006.0
2026-01-12 14:49:51,2026-01-12 14:49:50,1005.14,+2234,3.04,+2373,2015/10/18,00:01:45,+0000000000,+0000000000,-00017000,00,2026-01-12 14:49:50,25.4,309.8,739.6,1.5085,12.2,0000.00000,00000.00000,0.0,0,12/01/26,14:56:02,2026-01-12 14:49:51,00.04,088,-00.03,-00.00,00.03,23.20,34.02,1004.33,-179.9,-178.3,205,2026-01-12 14:49:50,627.2004,2094.00,1542.78,23.34,2048,success,2026-01-12 14:49:50,13344.0,1.99,3353.0,1.12,0.06,1.551,0.239,24.9,33.0,0.0,1200.0,4.18,0.5,9.9,48.0,2897.0,4696.0,1006.0
2026-01-12 14:49:52,2026-01-12 14:49:51,1005.13,+2235,3.04,+2373,2015/10/18,00:01:46,+0000000000,+0000000000,-00017000,00,,,,,,,,,,,,,2026-01-12 14:49:52,00.04,095,-00.03,00.00,00.03,23.21,33.98,1004.30,-180.0,-178.3,205,2026-01-12 14:49:52,627.2004,2080.00,1543.25,23.34,2048,success,2026-01-12 14:49:51,13345.0,0.0,297.0,0.75,0.87,1.588,0.393,24.9,33.0,0.0,85.0,4.2,0.5,10.1,46.4,3169.0,4705.0,1006.0
2026-01-12 14:49:53,2026-01-12 14:49:52,1005.07,+2232,3.04,+2373,2015/10/18,00:01:47,+0000000000,+0000000000,-00017000,00,,,,,,,,,,,,,2026-01-12 14:49:53,00.04,109,-00.02,00.01,00.03,23.21,33.94,1004.31,-179.9,-178.2,208,2026-01-12 14:49:52,627.2004,2089.00,1543.25,23.47,2048,success,2026-01-12 14:49:52,13346.0,1.99,3353.0,1.5,-0.31,1.513,0.565,24.8,33.0,0.0,100.0,4.19,0.5,9.6,46.4,3169.0,4705.0,1006.0
2026-01-12 14:49:54,2026-01-12 14:49:53,1005.14,+2241,3.05,+2374,2015/10/18,00:01:48,+0000000000,+0000000000,-00017000,00,,,,,,,,,,,,,2026-01-12 14:49:54,00.03,107,-00.03,00.01,00.02,23.20,33.98,1004.31,-179.9,-178.3,208,2026-01-12 14:49:53,627.2004,2080.00,1542.91,23.16,2048,success,2026-01-12 14:49:53,13347.0,0.0,293.0,0.5,0.5,1.558,0.834,24.8,33.0,0.0,99.0,4.2,0.5,9.9,46.4,3169.0,4700.0,1006.0
2026-01-12 14:49:55,2026-01-12 14:49:54,1005.11,+2241,3.05,+2375,2015/10/18,00:01:49,+0000000000,+0000000000,-00017000,00,,,,,,,,,,,,,2026-01-12 14:49:55,00.05,132,-00.03,00.03,00.04,23.19,34.01,1004.35,-180.0,-178.2,208,2026-01-12 14:49:55,627.2004,2090.00,1543.26,23.13,2048,success,2026-01-12 14:49:54,13348.0,1.99,3352.0,1.31,-0.31,1.532,1.062,24.8,33.0,0.0,99.0,4.2,0.5,9.8,46.4,3169.0,4707.0,1006.0
2026-01-12 14:49:56,2026-01-12 14:49:55,1005.1,+2240,3.05,+2375,2015/10/18,00:01:50,+0000000000,+0000000000,-00017000,00,,,,,,,,,,,,,2026-01-12 14:49:56,00.07,099,-00.04,00.01,00.05,23.20,33.93,1004.31,-179.9,-178.2,205,2026-01-12 14:49:55,627.2004,2105.00,1542.99,23.08,2048,success,2026-01-12 14:49:55,13349.0,0.0,296.0,0.44,0.87,1.512,1.191,24.8,34.0,0.0,99.0,4.2,0.5,9.6,46.4,3169.0,4704.0,1006.0
2026-01-12 14:49:57,2026-01-12 14:49:56,1005.08,+2235,3.05,+2374,2015/10/18,00:01:51,+0000000000,+0000000000,-00017000,00,,,,,,,,,,,,,2026-01-12 14:49:57,00.06,089,-00.05,-00.00,00.04,23.17,34.00,1004.33,-180.0,-178.3,208,2026-01-12 14:49:56,627.2004,2108.00,1543.61,23.58,2048,success,2026-01-12 14:49:56,13350.0,1.98,3355.0,1.56,-0.25,1.552,1.293,24.8,34.0,0.0,100.0,4.2,0.5,9.9,46.4,3169.0,4705.0,1006.0
2026-01-12 14:49:58,2026-01-12 14:49:57,1005.15,+2237,3.05,+2374,2015/10/18,00:01:52,+0000000000,+0000000000,-00017000,00,,,,,,,,,,,,,2026-01-12 14:49:58,00.04,089,-00.03,-00.00,00.02,23.16,33.92,1004.32,-179.9,-178.2,211,2026-01-12 14:49:58,627.2004,2085.00,1543.31,23.22,2048,success,2026-01-12 14:49:57,13351.0,0.0,298.0,0.19,0.5,1.532,1.163,24.8,34.0,0.0,360.0,4.2,0.5,9.8,44.0,3295.0,4706.0,1006.0
2026-01-12 14:49:59,2026-01-12 14:49:58,1005.21,+2239,3.04,+2377,2015/10/18,00:01:53,+0000000000,+0000000000,-00017000,00,,,,,,,,,,,,,2026-01-12 14:49:59,00.05,073,-00.04,-00.01,00.02,23.15,33.92,1004.35,-179.9,-178.3,208,2026-01-12 14:49:58,627.2004,2091.00,1542.88,23.25,2048,success,2026-01-12 14:49:58,13352.0,2.0,3349.0,0.94,-0.12,1.546,1.135,24.8,34.0,0.0,361.0,4.2,0.5,9.9,44.0,3295.0,4696.0,1006.0
2026-01-12 14:50:00,2026-01-12 14:49:59,1005.13,+2237,3.04,+2377,2015/10/18,00:01:54,+0000000000,+0000000000,-00017000,00,,,,,,,,,,,,,2026-01-12 14:50:00,00.06,092,-00.05,00.00,00.03,23.18,33.93,1004.34,-179.9,-178.2,206,2026-01-12 14:50:00,627.2004,2092.00,1542.84,23.07,2048,success,2026-01-12 14:49:59,13353.0,0.0,297.0,0.37,0.62,1.517,1.035,24.8,34.0,0.0,361.0,4.2,0.5,9.7,44.0,3295.0,4696.0,1005.0
2026-01-12 14:50:01,2026-01-12 14:50:00,1005.16,+2238,3.04,+2377,2015/10/18,00:01:55,+0000000000,+0000000000,-00017000,00,2026-01-12 14:50:00,25.3,309.8,739.2,1.5085,12.2,0000.00000,00000.00000,0.0,0,12/01/26,14:56:12,2026-01-12 14:50:01,00.05,088,-00.04,-00.00,00.02,23.22,33.91,1004.33,-179.9,-178.2,207,2026-01-12 14:50:00,627.2004,2093.00,1542.85,23.35,2048,success,2026-01-12 14:50:00,13354.0,1.98,3353.0,1.06,-0.44,1.524,0.935,24.8,34.0,0.0,361.0,4.19,0.5,9.7,44.0,3295.0,4701.0,1005.0
2026-01-12 14:50:02,2026-01-12 14:50:01,1005.12,+2235,3.04,+2378,2015/10/18,00:01:56,+0000000000,+0000000000,-00017000,00,,,,,,,,,,,,,2026-01-12 14:50:02,00.06,060,-00.04,-00.03,00.03,23.25,33.97,1004.31,-179.9,-178.2,206,2026-01-12 14:50:01,627.2004,2109.00,1543.13,23.41,2048,success,2026-01-12 14:50:01,13355.0,0.0,297.0,0.69,0.19,1.519,0.91,24.8,34.0,0.0,360.0,4.2,0.5,9.7,44.0,3295.0,4701.0,1005.0
2026-01-12 14:50:03,2026-01-12 14:50:02,1005.12,+2236,3.04,+2378,2015/10/18,00:01:57,+0000000000,+0000000000,-00017000,00,,,,,,,,,,,,,2026-01-12 14:50:03,00.04,072,-00.03,-00.01,00.03,23.26,33.94,1004.33,-179.9,-178.3,207,2026-01-12 14:50:03,627.2004,2087.00,1543.28,23.16,2048,success,2026-01-12 14:50:02,13356.0,2.0,3352.0,0.81,-0.12,1.528,0.879,24.8,34.0,0.0,361.0,4.2,0.5,9.7,44.0,3295.0,4705.0,1006.0
2026-01-12 14:50:04,2026-01-12 14:50:03,1005.14,+2239,3.04,+2378,2015/10/18,00:01:58,+0000000000,+0000000000,-00017000,00,,,,,,,,,,,,,2026-01-12 14:50:04,00.05,096,-00.04,00.01,00.02,23.25,33.93,1004.33,-180.0,-178.2,208,2026-01-12 14:50:03,627.2004,2099.00,1542.74,23.27,2048,success,2026-01-12 14:50:03,13357.0,0.0,297.0,0.62,0.31,1.543,0.747,24.8,34.0,0.0,720.0,4.19,0.5,9.8,40.3,3577.0,4705.0,1006.0
2026-01-12 14:50:05,2026-01-12 14:50:04,1005.11,+2238,3.05,+2379,2015/10/18,00:01:59,+0000000000,+0000000000,-00017000,00,,,,,,,,,,,,,2026-01-12 14:50:05,00.04,123,-00.03,00.02,00.02,23.21,33.94,1004.33,-180.0,-178.2,207,2026-01-12 14:50:04,627.2004,2096.00,1543.50,23.44,2048,success,2026-01-12 14:50:04,13358.0,1.99,3352.0,0.81,0.12,1.574,0.64,24.8,33.0,0.0,721.0,4.19,0.5,10.0,40.3,3577.0,4695.0,1006.0
2026-01-12 14:50:06,2026-01-12 14:50:05,1005.07,+2238,3.05,+2378,2015/10/18,00:02:00,+0000000000,+0000000000,-00017000,00,,,,,,,,,,,,,2026-01-12 14:50:06,00.05,123,-00.03,00.02,00.03,23.16,33.94,1004.34,-180.0,-178.3,206,2026-01-12 14:50:06,627.2004,2101.00,1542.61,23.70,2048,success,2026-01-12 14:50:05,13359.0,0.0,300.0,0.5,0.56,1.586,0.561,24.8,33.0,0.0,719.0,4.2,0.5,10.1,40.3,3577.0,4703.0,1006.0
2026-01-12 14:50:07,2026-01-12 14:50:06,1005.14,+2239,3.06,+2381,2015/10/18,00:02:01,+0000000000,+0000000000,-00017000,00,,,,,,,,,,,,,2026-01-12 14:50:07,00.03,081,-00.02,-00.00,00.02,23.14,33.92,1004.31,-180.0,-178.2,207,2026-01-12 14:50:06,627.2004,2087.00,1543.22,23.16,2048,success,2026-01-12 14:50:06,13360.0,1.99,3355.0,1.12,-0.12,1.615,0.468,24.8,33.0,0.0,721.0,4.2,0.5,10.3,40.3,3577.0,4704.0,1006.0
2026-01-12 14:50:08,2026-01-12 14:50:07,1005.13,+2238,3.06,+2379,2015/10/18,00:02:02,+0000000000,+0000000000,-00017000,00,,,,,,,,,,,,,2026-01-12 14:50:08,00.05,128,-00.03,00.02,00.02,23.11,33.91,1004.33,-180.0,-178.2,208,2026-01-12 14:50:07,627.2004,2090.00,1543.00,23.14,2048,success,2026-01-12 14:50:07,13361.0,0.0,297.0,0.69,0.25,1.598,0.479,24.8,33.0,0.0,720.0,4.19,0.5,10.2,40.3,3577.0,4706.0,1006.0
2026-01-12 14:50:09,2026-01-12 14:50:08,1005.13,+2238,3.06,+2382,2015/10/18,00:02:03,+0000000000,+0000000000,-00017000,00,,,,,,,,,,,,,2026-01-12 14:50:09,00.05,112,-00.04,00.01,00.03,23.10,33.96,1004.31,-179.9,-178.2,207,2026-01-12 14:50:09,627.2004,2118.00,1542.88,23.47,2048,success,2026-01-12 14:50:08,13362.0,1.98,3352.0,1.19,-0.19,1.526,0.478,24.8,33.0,0.0,722.0,4.2,0.5,9.7,40.3,3577.0,4700.0,1006.0
2026-01-12 14:50:10,2026-01-12 14:50:09,1005.13,+2238,3.06,+2381,2015/10/18,00:02:04,+0000000000,+0000000000,-00017000,00,,,,,,,,,,,,,2026-01-12 14:50:10,00.04,128,-00.03,00.02,00.02,23.09,33.96,1004.34,-179.9,-178.2,208,2026-01-12 14:50:09,627.2004,2094.00,1542.66,23.39,2048,success,2026-01-12 14:50:09,13363.0,0.0,294.0,0.25,0.19,1.489,0.38,24.8,33.0,0.0,1201.0,4.2,0.5,9.5,41.1,3260.0,4702.0,1006.0
2026-01-12 14:50:11,2026-01-12 14:50:10,1005.04,+2237,3.06,+2382,2015/10/18,00:02:05,+0000000000,+0000000000,-00017000,00,2026-01-12 14:50:10,26.2,309.8,740.1,1.5085,12.2,0000.00000,00000.00000,0.0,0,12/01/26,14:56:22,2026-01-12 14:50:11,00.02,121,-00.01,00.01,00.02,23.13,33.89,1004.35,-180.0,-178.2,207,2026-01-12 14:50:11,627.2004,2089.00,1542.64,23.16,2048,success,2026-01-12 14:50:10,13364.0,1.99,3353.0,1.06,0.44,1.437,0.264,24.8,34.0,0.0,1200.0,4.2,0.5,9.2,41.1,3260.0,4700.0,1006.0
2026-01-12 14:50:12,2026-01-12 14:50:11,1005.13,+2242,3.06,+2382,2015/10/18,00:02:06,+0000000000,+0000000000,-00017000,00,,,,,,,,,,,,,2026-01-12 14:50:12,00.03,112,-00.02,00.01,00.03,23.12,33.94,1004.34,-179.9,-178.2,205,2026-01-12 14:50:11,627.2004,2073.00,1542.65,22.84,2048,success,2026-01-12 14:50:11,13365.0,0.0,297.0,0.12,0.5,1.464,0.19,24.8,34.0,0.0,1199.0,4.19,0.5,9.3,41.1,3260.0,4706.0,1006.0
2026-01-12 14:50:13,2026-01-12 14:50:12,1005.12,+2238,3.06,+2383,2015/10/18,00:02:07,+0000000000,+0000000000,-00017000,00,,,,,,,,,,,,,2026-01-12 14:50:13,00.05,136,-00.02,00.02,00.04,23.14,33.96,1004.36,-180.0,-178.2,206,2026-01-12 14:50:12,627.2004,2087.00,1542.69,23.22,2048,success,2026-01-12 14:50:12,13366.0,1.98,3355.0,1.12,0.0,1.484,0.096,24.8,34.0,0.0,1201.0,4.19,0.5,9.5,41.1,3260.0,4732.0,1006.0
2026-01-12 14:50:14,2026-01-12 14:50:13,1005.14,+2237,3.06,+2383,2015/10/18,00:02:08,+0000000000,+0000000000,-00017000,00,,,,,,,,,,,,,2026-01-12 14:50:14,00.03,131,-00.02,00.02,00.01,23.17,33.98,1004.32,-179.9,-178.2,207,2026-01-12 14:50:14,627.2004,2081.00,1542.64,22.98,2048,success,2026-01-12 14:50:13,13367.0,0.0,293.0,0.81,0.25,1.553,0.139,24.8,34.0,0.0,1199.0,4.2,0.5,9.9,41.1,3260.0,4707.0,1006.0
2026-01-12 14:50:15,2026-01-12 14:50:14,1005.15,+2236,3.06,+2383,2015/10/18,00:02:09,+0000000000,+0000000000,-00017000,00,,,,,,,,,,,,,2026-01-12 14:50:15,00.04,130,-00.01,00.01,00.03,23.17,33.93,1004.32,-180.0,-178.3,206,2026-01-12 14:50:14,627.2004,2098.00,1542.06,23.27,2048,success,2026-01-12 14:50:14,13368.0,1.99,3352.0,1.12,0.06,1.552,0.119,24.8,34.0,0.0,1198.0,4.2,0.5,9.9,41.1,3260.0,4705.0,1006.0
2026-01-12 14:50:16,2026-01-12 14:50:15,1005.09,+2237,3.06,+2383,2015/10/18,00:02:10,+0000000000,+0000000000,-00017000,00,,,,,,,,,,,,,2026-01-12 14:50:16,00.05,074,-00.04,-00.01,00.03,23.17,33.91,1004.33,-179.9,-178.3,208,2026-01-12 14:50:15,627.2004,2089.00,1542.35,23.04,2048,success,2026-01-12 14:50:15,13369.0,0.0,294.0,0.69,1.25,1.521,0.259,24.8,34.0,0.0,85.0,4.2,0.5,9.7,43.0,3253.0,4698.0,1006.0
2026-01-12 14:50:17,2026-01-12 14:50:16,1005.09,+2239,3.06,+2385,2015/10/18,00:02:11,+0000000000,+0000000000,-00017000,00,,,,,,,,,,,,,2026-01-12 14:50:17,00.04,057,-00.03,-00.02,00.02,23.12,33.94,1004.35,-179.9,-178.2,206,2026-01-12 14:50:17,627.2004,2099.00,1542.33,23.40,2048,success,2026-01-12 14:50:16,13370.0,1.99,3353.0,1.25,0.37,1.482,0.449,24.8,34.0,0.0,99.0,4.2,0.5,9.4,43.0,3253.0,4698.0,1006.0
2026-01-12 14:50:18,2026-01-12 14:50:17,1005.13,+2238,3.06,+2383,2015/10/18,00:02:12,+0000000000,+0000000000,-00017000,00,,,,,,,,,,,,,2026-01-12 14:50:18,00.05,085,-00.04,-00.00,00.02,23.19,33.92,1004.30,-179.9,-178.2,206,2026-01-12 14:50:17,627.2004,2114.00,1542.25,23.73,2048,success,2026-01-12 14:50:17,13371.0,0.0,292.0,0.5,1.06,1.393,0.718,24.8,34.0,0.0,100.0,4.2,0.499,8.9,43.0,3253.0,4736.0,1006.0
2026-01-12 14:50:19,2026-01-12 14:50:18,1005.11,+2238,3.07,+2385,2015/10/18,00:02:13,+0000000000,+0000000000,-00017000,00,,,,,,,,,,,,,2026-01-12 14:50:19,00.05,085,-00.04,-00.00,00.03,23.27,33.93,1004.33,-179.9,-178.2,207,2026-01-12 14:50:19,627.2004,2112.00,1541.85,23.23,2048,success,2026-01-12 14:50:18,13372.0,1.98,3355.0,1.31,-0.44,1.395,0.967,24.8,34.0,0.0,99.0,4.2,0.5,8.9,43.0,3253.0,4699.0,1006.0
2026-01-12 14:50:20,2026-01-12 14:50:19,1005.16,+2239,3.06,+2385,2015/10/18,00:02:14,+0000000000,+0000000000,-00017000,00,,,,,,,,,,,,,2026-01-12 14:50:20,00.03,053,-00.02,-00.02,00.02,23.19,33.92,1004.36,-179.9,-178.2,207,2026-01-12 14:50:20,627.2004,2071.00,1541.99,23.04,2048,success,2026-01-12 14:50:19,13373.0,0.0,300.0,0.56,1.0,1.41,1.09,24.8,34.0,0.0,98.0,4.19,0.499,9.0,43.0,3253.0,4708.0,1006.0
2026-01-12 14:50:21,2026-01-12 14:50:20,1005.14,+2239,3.06,+2386,2015/10/18,00:02:15,+0000000000,+0000000000,-00017000,00,2026-01-12 14:50:20,25.8,309.8,738.9,1.5085,12.2,0000.00000,00000.00000,0.0,0,12/01/26,14:56:32,2026-01-12 14:50:21,00.04,057,-00.03,-00.02,00.02,23.19,33.98,1004.31,-179.9,-178.3,207,2026-01-12 14:50:20,627.2004,2082.00,1542.10,23.04,2048,success,2026-01-12 14:50:20,13374.0,2.0,3355.0,1.25,0.0,1.484,1.169,24.8,34.0,0.0,100.0,4.21,0.499,9.4,43.0,3253.0,4707.0,1006.0
2026-01-12 14:50:22,2026-01-12 14:50:21,1005.06,+2238,3.06,+2386,2015/10/18,00:02:16,+0000000000,+0000000000,-00017000,00,,,,,,,,,,,,,2026-01-12 14:50:22,00.04,046,-00.03,-00.03,00.02,23.21,33.91,1004.32,-180.0,-178.3,207,2026-01-12 14:50:22,627.2004,2093.00,1542.49,23.02,2048,success,2026-01-12 14:50:21,13375.0,0.0,297.0,0.87,0.31,1.52,1.062,24.8,34.0,0.0,361.0,4.21,0.5,9.7,33.3,3940.0,4702.0,1006.0
2026-01-12 14:50:23,2026-01-12 14:50:22,1005.11,+2238,3.06,+2386,2015/10/18,00:02:17,+0000000000,+0000000000,-00017000,00,,,,,,,,,,,,,2026-01-12 14:50:23,00.06,061,-00.04,-00.02,00.04,23.26,33.94,1004.30,-180.0,-178.3,208,2026-01-12 14:50:23,627.2004,2125.00,1542.26,23.74,2048,success,2026-01-12 14:50:22,13376.0,1.99,3353.0,0.87,-0.37,1.512,0.995,24.8,33.0,0.0,361.0,4.2,0.499,9.6,33.3,3940.0,4691.0,1006.0
2026-01-12 14:50:24,2026-01-12 14:50:23,1005.14,+2240,3.06,+2388,2015/10/18,00:02:18,+0000000000,+0000000000,-00017000,00,,,,,,,,,,,,,2026-01-12 14:50:24,00.05,082,-00.04,-00.01,00.02,23.29,33.89,1004.33,-179.9,-178.3,205,2026-01-12 14:50:23,627.2004,2072.00,1542.18,23.04,2048,success,2026-01-12 14:50:23,13377.0,0.0,298.0,0.5,0.5,1.518,0.897,24.8,33.0,0.0,361.0,4.2,0.5,9.7,33.3,3940.0,4702.0,1006.0
2026-01-12 14:50:25,2026-01-12 14:50:24,1005.14,+2241,3.06,+2388,2015/10/18,00:02:19,+0000000000,+0000000000,-00017000,00,,,,,,,,,,,,,2026-01-12 14:50:25,00.04,078,-00.04,-00.01,00.01,23.29,33.94,1004.36,-179.9,-178.3,208,2026-01-12 14:50:25,627.2004,2075.00,1541.61,22.79,2048,success,2026-01-12 14:50:24,13378.0,2.0,3355.0,0.62,0.0,1.494,0.804,24.8,33.0,0.0,361.0,4.19,0.5,9.5,33.3,3940.0,4701.0,1006.0
2026-01-12 14:50:26,2026-01-12 14:50:25,1005.15,+2242,3.06,+2388,2015/10/18,00:02:20,+0000000000,+0000000000,-00017000,00,,,,,,,,,,,,,2026-01-12 14:50:26,00.05,086,-00.04,-00.00,00.03,23.35,33.92,1004.32,-179.9,-178.3,204,2026-01-12 14:50:25,627.2004,2109.00,1541.85,23.47,2048,success,2026-01-12 14:50:25,13379.0,0.0,297.0,0.56,0.81,1.482,0.836,24.8,34.0,0.0,361.0,4.2,0.5,9.4,33.3,3940.0,4698.0,1006.0
2026-01-12 14:50:27,2026-01-12 14:50:26,1005.13,+2238,3.06,+2389,2015/10/18,00:02:21,+0000000000,+0000000000,-00017000,00,,,,,,,,,,,,,2026-01-12 14:50:27,00.06,075,-00.05,-00.01,00.02,23.37,33.92,1004.36,-180.0,-178.2,206,2026-01-12 14:50:26,627.2004,2094.00,1542.56,23.35,2048,success,2026-01-12 14:50:26,13380.0,2.01,3353.0,1.06,0.25,1.498,0.872,24.8,34.0,0.0,361.0,4.2,0.5,9.5,33.3,3940.0,4699.0,1005.0
2026-01-12 14:50:28,2026-01-12 14:50:27,1005.12,+2238,3.07,+2389,2015/10/18,00:02:22,+0000000000,+0000000000,-00017000,00,,,,,,,,,,,,,2026-01-12 14:50:28,00.05,088,-00.05,-00.00,00.02,23.37,33.92,1004.33,-179.9,-178.3,206,2026-01-12 14:50:28,627.2004,2068.00,1542.76,23.12,2048,success,2026-01-12 14:50:27,13381.0,0.0,297.0,0.69,-0.25,1.474,0.822,24.8,34.0,0.0,720.0,4.2,0.499,9.4,34.8,3674.0,4674.0,1005.0
2026-01-12 14:50:29,2026-01-12 14:50:28,1005.17,+2238,3.07,+2389,2015/10/18,00:02:23,+0000000000,+0000000000,-00017000,00,,,,,,,,,,,,,2026-01-12 14:50:29,00.06,091,-00.05,00.00,00.03,23.36,33.91,1004.32,-180.0,-178.2,206,2026-01-12 14:50:28,627.2004,2093.00,1541.99,22.79,2048,success,2026-01-12 14:50:28,13382.0,2.0,3353.0,1.0,0.06,1.464,0.736,24.8,34.0,0.0,720.0,4.2,0.5,9.3,34.8,3674.0,4705.0,1005.0
2026-01-12 14:50:30,2026-01-12 14:50:29,1005.13,+2242,3.07,+2389,2015/10/18,00:02:24,+0000000000,+0000000000,-00017000,00,,,,,,,,,,,,,2026-01-12 14:50:30,00.05,072,-00.04,-00.01,00.03,23.32,33.93,1004.34,-179.9,-178.3,209,2026-01-12 14:50:30,627.2004,2073.00,1542.55,23.12,2048,success,2026-01-12 14:50:29,13383.0,0.0,297.0,0.37,0.25,1.491,0.69,24.8,34.0,0.0,719.0,4.19,0.5,9.5,34.8,3674.0,4697.0,1006.0
2026-01-12 14:50:31,2026-01-12 14:50:30,1005.1,+2241,3.07,+2390,2015/10/18,00:02:25,+0000000000,+0000000000,-00017000,00,2026-01-12 14:50:30,24.6,309.8,739.7,1.5084,12.2,0000.00000,00000.00000,0.0,0,12/01/26,14:56:42,2026-01-12 14:50:31,00.04,096,-00.03,00.00,00.02,23.32,33.92,1004.35,-180.0,-178.2,205,2026-01-12 14:50:31,627.2004,2106.00,1542.23,23.35,2048,success,2026-01-12 14:50:30,13384.0,1.99,3355.0,0.81,0.44,1.477,0.57,24.8,34.0,0.0,719.0,4.2,0.5,9.4,34.8,3674.0,4708.0,1006.0
2026-01-12 14:50:32,2026-01-12 14:50:31,1005.14,+2241,3.07,+2390,2015/10/18,00:02:26,+0000000000,+0000000000,-00017000,00,,,,,,,,,,,,,2026-01-12 14:50:32,00.05,103,-00.04,00.01,00.01,23.31,33.93,1004.34,-179.9,-178.2,208,2026-01-12 14:50:31,627.2004,2081.00,1542.03,23.17,2048,success,2026-01-12 14:50:31,13385.0,0.0,293.0,0.56,0.31,1.501,0.538,24.8,34.0,0.0,719.0,4.2,0.5,9.6,34.8,3674.0,4701.0,1006.0
2026-01-12 14:50:33,2026-01-12 14:50:32,1005.09,+2239,3.07,+2390,2015/10/18,00:02:27,+0000000000,+0000000000,-00017000,00,,,,,,,,,,,,,2026-01-12 14:50:33,00.03,070,-00.03,-00.01,00.01,23.32,33.91,1004.31,-179.9,-178.3,208,2026-01-12 14:50:33,627.2004,2114.00,1541.74,23.43,2048,success,2026-01-12 14:50:32,13386.0,2.01,3356.0,1.12,-0.44,1.508,0.519,24.8,34.0,0.0,721.0,4.2,0.499,9.6,34.8,3674.0,4660.0,1006.0
2026-01-12 14:50:34,2026-01-12 14:50:33,1005.11,+2239,3.07,+2390,2015/10/18,00:02:28,+0000000000,+0000000000,-00017000,00,,,,,,,,,,,,,2026-01-12 14:50:34,00.05,102,-00.04,00.01,00.03,23.30,33.92,1004.35,-179.9,-178.3,210,2026-01-12 14:50:34,627.2004,2072.00,1542.07,22.96,2048,success,2026-01-12 14:50:33,13387.0,0.01,300.0,0.5,0.56,1.444,0.329,24.8,34.0,0.0,1200.0,4.2,0.5,9.2,31.9,3761.0,4702.0,1006.0
2026-01-12 14:50:35,2026-01-12 14:50:34,1005.13,+2240,3.07,+2392,2015/10/18,00:02:29,+0000000000,+0000000000,-00017000,00,,,,,,,,,,,,,2026-01-12 14:50:35,00.04,097,-00.03,00.00,00.02,23.34,33.91,1004.34,-179.9,-178.2,206,2026-01-12 14:50:34,627.2004,2074.00,1541.86,22.92,2048,success,2026-01-12 14:50:34,13388.0,2.0,3355.0,0.56,0.19,1.46,0.244,24.8,34.0,0.0,1201.0,4.2,0.5,9.3,31.9,3761.0,4702.0,1006.0
2026-01-12 14:50:36,2026-01-12 14:50:35,1005.12,+2242,3.06,+2392,2015/10/18,00:02:30,+0000000000,+0000000000,-00017000,00,,,,,,,,,,,,,2026-01-12 14:50:36,00.04,102,-00.02,00.01,00.03,23.32,33.92,1004.32,-180.0,-178.2,209,2026-01-12 14:50:36,627.2004,2104.00,1541.41,23.45,2048,success,2026-01-12 14:50:35,13389.0,0.0,297.0,0.25,0.44,1.473,0.165,24.8,34.0,0.0,1200.0,4.19,0.5,9.4,31.9,3761.0,4707.0,1006.0
2026-01-12 14:50:37,2026-01-12 14:50:36,1005.11,+2241,3.06,+2393,2015/10/18,00:02:31,+0000000000,+0000000000,-00017000,00,,,,,,,,,,,,,2026-01-12 14:50:37,00.05,059,-00.03,-00.02,00.03,23.30,33.92,1004.34,-179.9,-178.3,208,2026-01-12 14:50:36,627.2004,2071.00,1541.44,22.82,2048,success,2026-01-12 14:50:36,13390.0,2.01,3352.0,0.81,0.31,1.442,0.074,24.8,34.0,0.0,1200.0,4.2,0.5,9.2,31.9,3761.0,4704.0,1006.0
2026-01-12 14:50:38,2026-01-12 14:50:37,1005.13,+2241,3.06,+2392,2015/10/18,00:02:32,+0000000000,+0000000000,-00017000,00,,,,,,,,,,,,,2026-01-12 14:50:38,00.03,082,-00.03,-00.00,00.02,23.30,33.89,1004.30,-180.0,-178.3,206,2026-01-12 14:50:38,627.2004,2082.00,1541.33,24.75,2048,success,2026-01-12 14:50:37,13391.0,0.0,297.0,0.75,0.25,1.47,0.126,24.9,34.0,0.0,1199.0,4.2,0.5,9.4,31.9,3761.0,4705.0,1006.0
2026-01-12 14:50:39,2026-01-12 14:50:38,1005.13,+2240,3.06,+2394,2015/10/18,00:02:33,+0000000000,+0000000000,-00017000,00,,,,,,,,,,,,,2026-01-12 14:50:39,00.03,079,-00.02,-00.00,00.02,23.29,33.91,1004.31,-180.0,-178.2,207,2026-01-12 14:50:39,627.2004,2087.00,1542.38,24.62,2048,success,2026-01-12 14:50:38,13392.0,1.99,3355.0,1.31,0.19,1.454,0.155,24.9,34.0,0.0,1198.0,4.2,0.5,9.3,31.9,3761.0,4702.0,1006.0
2026-01-12 14:50:40,2026-01-12 14:50:39,1005.14,+2242,3.06,+2393,2015/10/18,00:02:34,+0000000000,+0000000000,-00017000,00,,,,,,,,,,,,,2026-01-12 14:50:40,00.05,073,-00.04,-00.01,00.03,23.32,33.89,1004.32,-179.9,-178.2,208,2026-01-12 14:50:39,627.2004,2099.00,1542.44,24.69,2048,success,2026-01-12 14:50:40,13394.0,2.0,3355.0,0.75,-0.37,1.509,0.517,24.8,34.0,0.0,98.0,4.2,0.5,9.6,32.1,3763.0,4706.0,1006.0
2026-01-12 14:50:41,2026-01-12 14:50:40,1005.14,+2242,3.06,+2393,2015/10/18,00:02:35,+0000000000,+0000000000,-00017000,00,2026-01-12 14:50:40,23.7,309.8,739.7,1.5084,12.2,0000.00000,00000.00000,0.0,0,12/01/26,14:56:52,2026-01-12 14:50:41,00.04,088,-00.03,-00.00,00.02,23.30,33.91,1004.35,-179.9,-178.3,206,2026-01-12 14:50:41,627.2004,2104.00,1541.73,24.48,2048,success,2026-01-12 14:50:41,13395.0,0.0,297.0,0.87,0.94,1.512,0.795,24.8,34.0,0.0,99.0,4.2,0.499,9.6,32.1,3763.0,4699.0,1006.0
2026-01-12 14:50:42,2026-01-12 14:50:41,1005.14,+2244,3.05,+2393,2015/10/18,00:02:36,+0000000000,+0000000000,-00017000,00,,,,,,,,,,,,,2026-01-12 14:50:42,00.05,081,-00.05,-00.01,00.02,23.31,33.91,1004.35,-179.9,-178.3,208,2026-01-12 14:50:42,627.2004,2072.00,1541.98,24.30,2048,success,2026-01-12 14:50:42,13396.0,2.0,3353.0,1.12,-0.12,1.463,0.995,24.8,34.0,0.0,100.0,4.2,0.5,9.3,32.1,3763.0,4704.0,1006.0
2026-01-12 14:50:43,2026-01-12 14:50:42,1005.17,+2241,3.05,+2396,2015/10/18,00:02:37,+0000000000,+0000000000,-00017000,00,,,,,,,,,,,,,2026-01-12 14:50:43,00.05,094,-00.05,00.00,00.02,23.29,33.87,1004.30,-179.9,-178.3,209,2026-01-12 14:50:42,627.2004,2107.00,1541.87,24.71,2048,success,2026-01-12 14:50:43,13397.0,0.0,293.0,0.62,0.81,1.411,1.128,24.8,34.0,0.0,99.0,4.2,0.5,9.0,32.1,3763.0,4707.0,1006.0
2026-01-12 14:50:44,2026-01-12 14:50:43,1005.15,+2244,3.04,+2394,2015/10/18,00:02:38,+0000000000,+0000000000,-00017000,00,,,,,,,,,,,,,2026-01-12 14:50:44,00.03,109,-00.03,00.01,00.02,23.30,33.91,1004.33,-179.9,-178.2,206,2026-01-12 14:50:44,627.2004,2076.00,1541.67,24.19,2048,success,2026-01-12 14:50:44,13398.0,1.98,3353.0,1.5,-0.5,1.407,1.239,24.8,34.0,0.0,100.0,4.2,0.5,9.0,32.1,3763.0,4704.0,1006.0
2026-01-12 14:50:45,2026-01-12 14:50:44,1005.13,+2246,3.04,+2396,2015/10/18,00:02:39,+0000000000,+0000000000,-00017000,00,,,,,,,,,,,,,2026-01-12 14:50:45,00.05,085,-00.04,-00.00,00.02,23.32,33.87,1004.35,-179.9,-178.2,207,2026-01-12 14:50:44,627.2004,2096.00,1541.22,24.57,2048,success,2026-01-12 14:50:45,13399.0,0.0,298.0,0.5,0.44,1.428,1.15,24.8,34.0,0.0,362.0,4.2,0.499,9.1,42.9,3066.0,4696.0,1006.0
2026-01-12 14:50:46,2026-01-12 14:50:45,1005.15,+2244,3.04,+2396,2015/10/18,00:02:40,+0000000000,+0000000000,-00017000,00,,,,,,,,,,,,,2026-01-12 14:50:46,00.03,118,-00.02,00.01,00.02,23.29,33.92,1004.35,-180.0,-178.2,207,2026-01-12 14:50:46,627.2004,2083.00,1541.23,24.58,2048,success,2026-01-12 14:50:46,13400.0,2.0,3351.0,1.31,0.31,1.467,1.127,24.8,34.0,0.0,361.0,4.2,0.5,9.3,42.9,3066.0,4703.0,1006.0
2026-01-12 14:50:47,2026-01-12 14:50:46,1005.07,+2242,3.03,+2396,2015/10/18,00:02:41,+0000000000,+0000000000,-00017000,00,,,,,,,,,,,,,2026-01-12 14:50:47,00.05,102,-00.05,00.01,00.02,23.22,33.91,1004.33,-179.9,-178.2,209,2026-01-12 14:50:47,627.2004,2087.00,1541.98,24.57,2048,success,2026-01-12 14:50:47,13401.0,0.0,298.0,0.62,0.5,1.414,0.94,24.8,34.0,0.0,361.0,4.2,0.5,9.0,42.9,3066.0,4696.0,1006.0
2026-01-12 14:50:48,2026-01-12 14:50:47,1005.09,+2241,3.02,+2396,2015/10/18,00:02:42,+0000000000,+0000000000,-00017000,00,,,,,,,,,,,,,2026-01-12 14:50:48,00.04,116,-00.03,00.01,00.02,23.22,33.88,1004.35,-179.9,-178.2,209,2026-01-12 14:50:47,627.2004,2110.00,1541.65,25.02,2048,success,2026-01-12 14:50:48,13402.0,1.99,3352.0,1.06,0.31,1.382,0.816,24.8,34.0,0.0,360.0,4.2,0.5,8.8,42.9,3066.0,4708.0,1006.0
2026-01-12 14:50:49,2026-01-12 14:50:48,1005.07,+2242,3.02,+2397,2015/10/18,00:02:43,+0000000000,+0000000000,-00017000,00,,,,,,,,,,,,,2026-01-12 14:50:49,00.03,086,-00.03,-00.00,00.01,23.22,33.87,1004.34,-179.9,-178.2,205,2026-01-12 14:50:49,627.2004,2091.00,1541.78,24.61,2048,success,2026-01-12 14:50:49,13403.0,0.0,293.0,0.31,0.37,1.315,0.856,24.8,34.0,0.0,361.0,4.2,0.5,8.4,42.9,3066.0,4701.0,1006.0
2026-01-12 14:50:50,2026-01-12 14:50:49,1005.15,+2242,3.01,+2397,2015/10/18,00:02:44,+0000000000,+0000000000,-00017000,00,,,,,,,,,,,,,2026-01-12 14:50:50,00.04,105,-00.04,00.01,00.02,23.18,33.94,1004.32,-179.9,-178.2,207,2026-01-12 14:50:50,627.2004,2083.00,1541.22,24.49,2048,success,2026-01-12 14:50:50,13404.0,2.01,3353.0,1.25,0.44,1.308,0.864,24.8,34.0,0.0,361.0,4.2,0.5,8.3,42.9,3066.0,4697.0,1006.0
2026-01-12 14:50:51,2026-01-12 14:50:50,1005.12,+2244,3.01,+2399,2015/10/18,00:02:45,+0000000000,+0000000000,-00017000,00,2026-01-12 14:50:50,25.2,309.8,738.6,1.5084,12.2,0000.00000,00000.00000,0.0,0,12/01/26,14:57:02,2026-01-12 14:50:51,00.05,109,-00.04,00.01,00.03,23.19,33.91,1004.39,-179.9,-178.2,207,2026-01-12 14:50:50,627.2004,2085.00,1541.35,24.80,2048,success,2026-01-12 14:50:51,13405.0,0.0,298.0,0.56,0.56,1.303,0.833,24.8,34.0,0.0,721.0,4.19,0.499,8.3,55.3,2225.0,4661.0,1006.0
2026-01-12 14:50:52,2026-01-12 14:50:51,1005.13,+2244,3.01,+2397,2015/10/18,00:02:46,+0000000000,+0000000000,-00017000,00,,,,,,,,,,,,,2026-01-12 14:50:52,00.02,119,-00.02,00.01,00.01,23.19,33.92,1004.35,-179.9,-178.3,206,2026-01-12 14:50:52,627.2004,2102.00,1541.36,25.06,2048,success,2026-01-12 14:50:52,13406.0,1.99,3356.0,1.37,0.25,1.354,0.733,24.8,34.0,0.0,720.0,4.2,0.5,8.6,55.3,2225.0,4705.0,1006.0
2026-01-12 14:50:53,2026-01-12 14:50:52,1005.13,+2244,3.0,+2399,2015/10/18,00:02:47,+0000000000,+0000000000,-00017000,00,,,,,,,,,,,,,2026-01-12 14:50:53,00.04,107,-00.03,00.01,00.03,23.20,33.93,1004.37,-180.0,-178.3,207,2026-01-12 14:50:53,627.2004,2090.00,1541.00,24.57,2048,success,2026-01-12 14:50:53,13407.0,0.0,292.0,0.56,0.44,1.415,0.603,24.8,34.0,0.0,721.0,4.2,0.5,9.0,55.3,2225.0,4698.0,1006.0
2026-01-12 14:50:54,2026-01-12 14:50:53,1005.13,+2240,3.01,+2399,2015/10/18,00:02:48,+0000000000,+0000000000,-00017000,00,,,,,,,,,,,,,2026-01-12 14:50:54,00.06,106,-00.04,00.01,00.03,23.20,33.93,1004.34,-179.9,-178.2,206,2026-01-12 14:50:54,627.2004,2084.00,1541.13,24.98,2048,success,2026-01-12 14:50:54,13408.0,1.99,3355.0,1.25,0.06,1.459,0.478,24.8,34.0,0.0,720.0,4.2,0.5,9.3,55.3,2225.0,4704.0,1006.0
2026-01-12 14:50:55,2026-01-12 14:50:54,1005.16,+2246,3.01,+2399,2015/10/18,00:02:49,+0000000000,+0000000000,-00017000,00,,,,,,,,,,,,,2026-01-12 14:50:55,00.06,133,-00.04,00.04,00.03,23.22,33.96,1004.35,-180.0,-178.3,207,2026-01-12 14:50:55,627.2004,2114.00,1541.26,24.95,2048,success,2026-01-12 14:50:55,13409.0,0.0,297.0,0.31,0.37,1.473,0.442,24.8,34.0,0.0,721.0,4.2,0.5,9.4,55.3,2225.0,4700.0,1006.0
2026-01-12 14:50:56,2026-01-12 14:50:55,1005.13,+2247,3.01,+2399,2015/10/18,00:02:50,+0000000000,+0000000000,-00017000,00,,,,,,,,,,,,,2026-01-12 14:50:56,00.05,083,-00.04,-00.01,00.03,23.23,33.91,1004.35,-180.0,-178.3,205,2026-01-12 14:50:55,627.2004,2085.00,1541.25,24.73,2048,success,2026-01-12 14:50:56,13410.0,2.0,3352.0,1.31,0.06,1.495,0.429,24.8,34.0,0.0,722.0,4.19,0.5,9.5,55.3,2225.0,4707.0,1006.0
2026-01-12 14:50:57,2026-01-12 14:50:56,1005.16,+2244,3.02,+2400,2015/10/18,00:02:51,+0000000000,+0000000000,-00017000,00,,,,,,,,,,,,,2026-01-12 14:50:57,00.04,068,-00.04,-00.02,00.02,23.25,33.95,1004.36,-180.0,-178.3,207,2026-01-12 14:50:57,627.2004,2081.00,1541.59,24.48,2048,success,2026-01-12 14:50:57,13411.0,0.0,289.0,0.81,0.62,1.431,0.298,24.8,34.0,0.0,1201.0,4.2,0.5,9.1,52.0,2657.0,4705.0,1006.0
2026-01-12 14:50:58,2026-01-12 14:50:57,1005.17,+2242,3.02,+2400,2015/10/18,00:02:52,+0000000000,+0000000000,-00017000,00,,,,,,,,,,,,,2026-01-12 14:50:58,00.05,080,-00.04,-00.01,00.03,23.25,33.95,1004.35,-179.9,-178.3,207,2026-01-12 14:50:58,627.2004,2112.00,1541.73,24.83,2048,success,2026-01-12 14:50:58,13412.0,2.01,3352.0,0.87,0.69,1.402,0.147,24.8,34.0,0.0,1200.0,4.19,0.5,8.9,52.0,2657.0,4704.0,1006.0
2026-01-12 14:50:59,2026-01-12 14:50:58,1005.17,+2247,3.02,+2399,2015/10/18,00:02:53,+0000000000,+0000000000,-00017000,00,,,,,,,,,,,,,2026-01-12 14:50:59,00.06,089,-00.03,-00.00,00.05,23.27,33.92,1004.34,-179.9,-178.2,207,2026-01-12 14:50:58,627.2004,2097.00,1540.59,24.60,2048,success,2026-01-12 14:50:59,13413.0,0.0,296.0,0.37,1.06,1.384,0.811,24.8,34.0,0.0,1199.0,4.2,0.5,8.8,52.0,2657.0,4707.0,1006.0
2026-01-12 14:51:00,2026-01-12 14:50:59,1005.13,+2244,3.02,+2400,2015/10/18,00:02:54,+0000000000,+0000000000,-00017000,00,,,,,,,,,,,,,2026-01-12 14:51:00,00.05,098,-00.04,00.01,00.03,23.26,33.91,1004.32,-179.9,-178.3,207,2026-01-12 14:51:00,627.2004,2078.00,1541.61,24.28,2048,success,2026-01-12 14:51:00,13414.0,2.0,3345.0,1.19,0.0,1.332,0.757,24.8,34.0,0.0,1200.0,4.19,0.5,8.5,52.0,2657.0,4701.0,1006.0
2026-01-12 14:51:01,2026-01-12 14:51:00,1005.15,+2246,3.03,+2401,2015/10/18,00:02:55,+0000000000,+0000000000,-00017000,00,2026-01-12 14:51:00,25.3,309.8,740.1,1.5084,12.2,0000.00000,00000.00000,0.0,0,12/01/26,14:57:12,2026-01-12 14:51:01,00.04,075,-00.03,-00.01,00.02,23.26,33.94,1004.36,-179.9,-178.2,208,2026-01-12 14:51:01,627.2004,2082.00,1541.57,24.51,2048,success,2026-01-12 14:51:01,13415.0,0.0,301.0,0.81,0.62,1.388,0.743,24.8,34.0,0.0,1200.0,4.2,0.5,8.8,52.0,2657.0,4698.0,1006.0
2026-01-12 14:51:02,2026-01-12 14:51:01,1005.13,+2247,3.02,+2401,2015/10/18,00:02:56,+0000000000,+0000000000,-00017000,00,,,,,,,,,,,,,2026-01-12 14:51:02,00.06,082,-00.05,-00.01,00.03,23.27,33.94,1004.33,-179.9,-178.2,208,2026-01-12 14:51:02,627.2004,2094.00,1541.55,24.56,2048,success,2026-01-12 14:51:02,13416.0,1.98,3355.0,0.81,0.12,1.401,0.761,24.8,34.0,0.0,1198.0,4.2,0.5,8.9,52.0,2657.0,4699.0,1006.0
2026-01-12 14:51:03,2026-01-12 14:51:02,1005.06,+2243,3.02,+2401,2015/10/18,00:02:57,+0000000000,+0000000000,-00017000,00,,,,,,,,,,,,,2026-01-12 14:51:03,00.04,059,-00.03,-00.02,00.02,23.28,33.95,1004.36,-179.9,-178.2,208,2026-01-12 14:51:03,627.2004,2099.00,1541.16,24.60,2048,success,2026-01-12 14:51:03,13417.0,0.0,300.0,0.5,1.37,1.412,0.334,24.8,34.0,0.0,85.0,4.2,0.5,9.0,55.5,2105.0,4708.0,1006.0
2026-01-12 14:51:04,2026-01-12 14:51:03,1005.18,+2245,3.02,+2401,2015/10/18,00:02:58,+0000000000,+0000000000,-00017000,00,,,,,,,,,,,,,2026-01-12 14:51:04,00.05,085,-00.04,-00.00,00.02,23.29,33.94,1004.33,-179.9,-178.2,206,2026-01-12 14:51:04,627.2004,2092.00,1541.07,24.22,2048,success,2026-01-12 14:51:04,13418.0,2.0,3353.0,1.06,-0.19,1.366,0.512,24.8,33.0,0.0,99.0,4.2,0.499,8.7,55.5,2105.0,4705.0,1006.0
